"id","extralabel","name","latitude","longitude","country"
"FR9900001466","FreightTerminal","Jessains","48.2846305","4.5830311","France"
"FR0000006463","DepotOrWorkshop","faisceau Pair","48.5951891","4.583896","France"
"FR0000007116","DepotOrWorkshop","Faisceau Chantier V","48.7173461","4.5845677","France"
"FR0000007278","DepotOrWorkshop","Faisceau  V4 à V22","48.7173743","4.5848258","France"
"FR0000001843","Junction","Bif 001000/015000","48.2835915","4.5848677","France"
"FR0000011482","Junction","Accès à faisceau Pair","48.6007051","4.5850657","France"
"FR9900001899","FreightTerminal","Chavanges","48.5086372","4.5860316","France"
"FR0000002071","Junction","Bif 013000/070000","48.7175423","4.5862757","France"
"FR0000000006","Junction","Bif 015000/013000","48.4421322","4.5869556","France"
"FR0000004273","Station","Vitry-le-François","48.7177722","4.5875791","France"
"FR0000007693","PrivateSiding","CARB","48.2818115","4.587889","France"
"FR0000007809","DepotOrWorkshop","Faisceau Impair","45.5213018","4.596263","France"
"FR0000012591","Junction","Accès à Faisceau  V4 à V22","48.7191589","4.5979228","France"
"FR0000006522","DepotOrWorkshop","Faisceau Impair V3 à V17","48.7192127","4.5983203","France"
"FR0000008678","PrivateSiding","Syndicat d'aménagement de VITRY MAROLLES","48.7193665","4.5994286","France"
"FR9900003590","Junction","Technical change","45.8101126","4.6008497","France"
"FR9900002098","Junction","Technical change","45.8107351","4.601169","France"
"FR9900001699","Station","Sain-Bel","45.8111237","4.60144","France"
"FR0000004624","Station","Rive-de-Gier","45.5244627","4.6066566","France"
"FR0000006861","DepotOrWorkshop","VAUX EN PRE Faisceau impair 3 à 7","46.6039515","4.6073244","France"
"FR0000013317","Junction","Accès à Faisceau Impair","45.5249523","4.6084559","France"
"FR0000014301","Junction","Accès à Faisceau Atelier","45.8292285","4.615946","France"
"FR9900004467","DepotOrWorkshop","Faisceau de Ham","49.7951426","4.6162888","France"
"FR0000008528","DepotOrWorkshop","Faisceau Atelier","45.8318791","4.6169997","France"
"FR0000022903","DepotOrWorkshop","Faisceau pair","49.7950031","4.6170627","France"
"FR0000005017","Station","L'Arbresle","45.8329984","4.6182443","France"
"FR0000006514","PrivateSiding","Embt 110 BOURGOGNE","47.896758","4.6192908","France"
"FR0000001979","Junction","Bif de Lozanne (L'Abresle)","45.83397","4.619819","France"
"FR0000002369","Station","Chessy","45.8854852","4.6224231","France"
"FR0000007523","DepotOrWorkshop","Faisceau Beaucaire-Marchandises","43.8080475","4.6226955","France"
"FR9900001999","FreightTerminal","Beaucaire-Marchandises","43.808044","4.6227082","France"
"FR0000002745","Station","Thenissey","47.4944948","4.6231722","France"
"FR0000007700","DepotOrWorkshop","Faisceau Pair","43.8075108","4.6244494","France"
"FR9900001378","FreightTerminal","Couzon (Loire)","45.5294617","4.6247775","France"
"FR9900004544","DepotOrWorkshop","Faisceau Pair","46.8466137","4.6251928","France"
"FR0000008205","DepotOrWorkshop","Faisceau Pair 6 à 8","44.1651786","4.6259626","France"
"FR9900004549","Station","Bagnols","44.1616338","4.6270002","France"
"FR9900001797","FreightTerminal","Tournes","49.7930384","4.6282431","France"
"FR0000004390","Station","St-Léger-sur-Dheune","46.8484603","4.6285492","France"
"FR0000008870","DepotOrWorkshop","Faisceau Arles V8 à V12","43.6995289","4.628572","France"
"FR0000006173","PrivateSiding","ZI Nord","43.6947368","4.6297754","France"
"FR0000006287","DepotOrWorkshop","Faisceau Arles V5 à V11","43.6926501","4.6302993","France"
"FR0000007269","DepotOrWorkshop","Faisceau Arles V16 à V64","43.6897462","4.6309663","France"
"FR0000014749","Junction","Accès à Faisceau Arles V8 à V12","43.6899808","4.6309696","France"
"FR0000009319","DepotOrWorkshop","Faisceau impair","49.7917125","4.6317897","France"
"FR0000002222","Station","Arles","43.6848933","4.6322109","France"
"FR0000011237","Junction","Accès à Faisceau Arles V5 à V11","43.6844335","4.6323259","France"
"FR9900003501","Junction","Bif 821000/830000","43.6837053","4.6325087","France"
"FR0000007415","DepotOrWorkshop","Faisceau Ateliers Magasins","43.6781791","4.6352396","France"
"FR9900001057","TechnicalChange","Fin de ligne exploitée","43.6774246","4.6356031","France"
"FR0000016425","Station","Poix-Terron","49.6501362","4.6363809","France"
"FR0000008362","DepotOrWorkshop","Faisceau pair","49.6509087","4.6369503","France"
"FR0000007369","DepotOrWorkshop","Faisceau impair","49.6532913","4.6385759","France"
"FR0000006734","DepotOrWorkshop","Faisceau impair 3 à 11","44.2484842","4.6413816","France"
"FR0000005905","PrivateSiding","Zone Portuaire","43.8027714","4.6425124","France"
"FR0000006983","DepotOrWorkshop","Faisceau impair 3 à 7","44.3744613","4.6425938","France"
"FR0000004057","Station","Revin","49.9387357","4.642854","France"
"FR0000006987","DepotOrWorkshop","Faisceau impair Sud","49.935856","4.6429966","France"
"FR0000007526","DepotOrWorkshop","Faisceau pair","49.9355885","4.6430157","France"
"FR0000007140","DepotOrWorkshop","Faisceau impair Nord","49.9402816","4.6430975","France"
"FR9900004550","Station","Pont-St-Esprit","44.2535442","4.6431365","France"
"FR0000012931","Junction","Accès à Faisceau pair","49.9405025","4.643178","France"
"FR0000008902","PrivateSiding","Martini","43.8026698","4.6432566","France"
"FR0000005682","PrivateSiding","ITE 526,5","45.5381643","4.6449236","France"
"FR0000005190","Station","Châtillon-d'Azergues","45.8752053","4.6451448","France"
"FR0000004215","Station","Beaucaire","43.8022305","4.6470762","France"
"FR9900001969","FreightTerminal","Brion-sur-Ource","47.9136205","4.6538667","France"
"FR0000003790","Station","Tarascon","43.8007926","4.6572663","France"
"FR0000002061","Junction","Bif 830000/830356","43.7882161","4.6591882","France"
"FR0000009125","DepotOrWorkshop","Faisceau Pair Tarascon V54 à V58","43.7990863","4.6603122","France"
"FR0000004725","Station","Fleurieux-sur-l'Arbresle","45.8448355","4.6603941","France"
"FR0000007460","PrivateSiding","LA CELLULOSE","43.7915916","4.6604245","France"
"FR0000005807","PrivateSiding","Lafarge","45.8618847","4.6611482","France"
"FR0000000600","Junction","Jct 830000/830356","43.7928488","4.6611554","France"
"FR0000007343","DepotOrWorkshop","Faisceau Pair Tarascon V6 à V16","43.7989489","4.6637758","France"
"FR0000003315","Station","Lentilly","45.8218015","4.6671828","France"
"FR0000001207","Junction","Bif 830000/830351","43.8106934","4.6688621","France"
"FR0000004303","Station","Verrey","47.4388081","4.6696072","France"
"FR0000007068","PrivateSiding","Cogema","44.1345342","4.6706392","France"
"FR0000003226","Station","Anchamps","49.9307457","4.6708572","France"
"FR0000003423","Station","Cheilly-lès-Maranges","46.8924864","4.6757903","France"
"FR0000000951","Junction","Bif de Givors (Lozanne)","45.8548198","4.6776213","France"
"FR0000003493","Station","Lozanne","45.8539663","4.6814239","France"
"FR0000016460","Station","Lentilly-Charpenay","45.8164342","4.6822817","France"
"FR0000006817","PrivateSiding","Société SOUFFLET","47.9083453","4.683695","France"
"FR0000009031","DepotOrWorkshop","Faisceau V8 Lozanne","45.8540088","4.6837414","France"
"FR9900002542","Junction","Accès à Faisceau pair Lozanne","45.8542005","4.6839225","France"
"FR0000009786","TechnicalChange","Fin de ligne exploitée","47.9082322","4.6843529","France"
"FR0000008858","DepotOrWorkshop","Faisceau pair Lozanne","45.854077","4.6844083","France"
"FR9900003781","TechnicalChange","Fin de ligne exploitée","44.0909053","4.6846854","France"
"FR0000016434","Station","Le Teil","44.5525988","4.6863972","France"
"FR0000009145","DepotOrWorkshop","Faisceau Impair V5 et V7","43.8952826","4.6865402","France"
"FR0000001830","Junction","Bif 800000/805000","44.5534164","4.6866579","France"
"FR0000011394","Junction","Accès à Faisceau Impair","44.5545136","4.6869846","France"
"FR0000005665","DepotOrWorkshop","Faisceau Impair Lozanne","45.8545456","4.6873306","France"
"FR0000007258","PrivateSiding","Ben Fares","44.4772422","4.6882038","France"
"FR0000008906","PrivateSiding","Km 669,700","44.5161264","4.6891061","France"
"FR0000014798","Junction","Accès à Km 669,700","44.5144362","4.6891239","France"
"FR0000014729","Junction","Accès à Faisceau pair Lozanne","45.8539918","4.6891729","France"
"FR9900000744","Junction","Accès à Faisceau pair Lozanne","45.8547495","4.6892501","France"
"FR0000009185","PrivateSiding","EDF","43.8966672","4.6905145","France"
"FR0000006403","DepotOrWorkshop","Faisceau Impair","44.5659738","4.6908274","France"
"FR0000009255","PrivateSiding","Km 668,300","44.5307398","4.6911559","France"
"FR0000015265","Junction","Accès à Km 668,300","44.5290112","4.6912251","France"
"FR0000001921","Junction","Bif 775000/775306","45.8522159","4.6924923","France"
"FR0000004756","Station","Fumay","49.9860915","4.6925091","France"
"FR0000004577","Station","Laifour","49.9113592","4.6928982","France"
"FR0000005811","DepotOrWorkshop","Faisceau Impair V3 à V13","44.1003449","4.6967929","France"
"FR0000001508","Junction","Bif 800000/812306","44.0978716","4.6984926","France"
"FR0000008121","DepotOrWorkshop","Faisceau Impair","48.241912","4.6994339","France"
"FR9900001473","FreightTerminal","L'Ardoise","44.0963279","4.6995224","France"
"FR0000002088","Junction","Bif Rac de Valence (Pierrelatte)","44.279898","4.6995509","France"
"FR0000000050","Junction","Bif 752356/830000","44.2942639","4.6998558","France"
"FR0000006941","DepotOrWorkshop","Faisceau équipement","44.0957953","4.6998903","France"
"FR0000006242","DepotOrWorkshop","Faisceau Pair","48.2414957","4.700365","France"
"FR0000009464","DepotOrWorkshop","LAPALUD LGV","44.2849403","4.7006793","France"
"FR0000000475","Junction","Bif Rac d'Avignon","44.3065226","4.7012399","France"
"FR0000003985","Station","Santenay-les-Bains","46.9105882","4.7017311","France"
"FR9900004511","Junction","Technical change","45.8535545","4.7030865","France"
"FR0000000733","Junction","Bif 830000/830646","44.3697348","4.7033745","France"
"FR0000007294","DepotOrWorkshop","Faisceau Pair","44.3726158","4.7038511","France"
"FR0000004399","Station","Pierrelatte","44.3746405","4.7041378","France"
"FR0000002362","Station","Haybes","50.0117885","4.7044805","France"
"FR0000003844","Station","Donzère","44.4432943","4.7044815","France"
"FR9900004653","Junction","Technical change","44.2811021","4.7046607","France"
"FR0000000265","Junction","Bif de Bollène","44.2787637","4.7054166","France"
"FR0000010607","Junction","Accès à Faisceau Impair V3 à V13","44.0887513","4.7058164","France"
"FR0000002230","Station","Bar-sur-Aube","48.2385572","4.7069542","France"
"FR0000004954","Station","Deville","49.879603","4.707201","France"
"FR0000015980","TechnicalChange","Fin de ligne","44.1018204","4.7072491","France"
"FR0000002006","Junction","Bif 812000/812306","44.0950491","4.7072774","France"
"FR0000002157","Station","Bollène-la-Croisière","44.2715665","4.708093","France"
"FR9900000312","Junction","Accès à Faisceau Impair","48.2380298","4.708131","France"
"FR0000009040","PrivateSiding","Km 1,1 N°1","44.3659015","4.7082651","France"
"FR0000009428","PrivateSiding","Km 1,1 N°2","44.3656435","4.7088353","France"
"FR0000009009","PrivateSiding","Km 1,2","44.3651462","4.7099341","France"
"FR0000006469","DepotOrWorkshop","Faisceau pair V4 à V10 - V12 Imp à V18 Imp","44.2663357","4.7100467","France"
"FR0000009055","DepotOrWorkshop","Faisceau impair V5-7","44.2636103","4.7110557","France"
"FR0000004203","Station","La Tour-de-Salvagny","45.7995222","4.7168445","France"
"FR0000001519","Junction","Bif de Languedoc","43.9358093","4.7175851","France"
"FR0000003192","Station","St-Georges-de-Reneins","46.0621506","4.7187082","France"
"FR0000011312","Junction","Accès à Faisceau Impair","45.9777796","4.7194596","France"
"FR0000008283","PrivateSiding","Km 2.2","44.3607414","4.7196837","France"
"FR0000002292","Station","Anse","45.9393896","4.7197918","France"
"FR0000009398","DepotOrWorkshop","Faisceau Remisage","45.979317","4.7198111","France"
"FR0000000117","Junction","Bif Rac Côté Hirson","49.7661298","4.7200771","France"
"FR0000008840","DepotOrWorkshop","Faisceau Pair","45.9805911","4.7201194","France"
"FR0000003937","Station","Villefranche-sur-Saône","45.9845413","4.72105","France"
"FR0000006346","DepotOrWorkshop","Faisceau Impair","45.985792","4.7213288","France"
"FR0000005626","PrivateSiding","Finition du siège","48.2273298","4.72137","France"
"FR0000005337","PrivateSiding","Zone Industrielle Nord","45.9995344","4.7226161","France"
"FR0000009140","PrivateSiding","EDF","50.0750122","4.7229109","France"
"FR0000006088","DepotOrWorkshop","Faisceau pair","50.0752668","4.7229212","France"
"FR0000010969","Junction","Accès à Faisceau pair","50.0822167","4.7231799","France"
"FR9900001077","TechnicalChange","Fin de ligne exploitée","46.11946","4.7231925","France"
"FR0000004593","Station","Vireux-Molhain","50.0827274","4.7231969","France"
"FR0000008233","PrivateSiding","Km 2,5","44.3590331","4.7234973","France"
"FR0000006040","PrivateSiding","Km 2.6","44.3589326","4.7237129","France"
"FR0000001382","Junction","Bif 205000/200000","50.08698","4.7245462","France"
"FR9900003762","TechnicalChange","Fin de ligne exploitée","50.0876392","4.7247664","France"
"FR0000005489","PrivateSiding","Km 0,950","46.1190163","4.7249065","France"
"FR0000022905","DepotOrWorkshop","Faisceau pair","49.7653251","4.7249906","France"
"FR0000008194","DepotOrWorkshop","Petit-Bois","49.765303","4.7249953","France"
"FR0000001392","Junction","Bif 205000/223000","49.7676385","4.7252304","France"
"FR0000003907","Station","Charleville-Mézières","49.7678699","4.7253545","France"
"FR0000003675","Station","Chazay-Marcilly","45.8731736","4.7254282","France"
"FR0000001960","Junction","Bif 205000/205316","49.7634894","4.7257488","France"
"FR0000003927","Station","Fépin","50.0233575","4.726502","France"
"FR0000011473","Junction","Accès à Faisceau Impair de Belleville-sur-Saône V3 à V11","46.1021249","4.7268304","France"
"FR0000012359","Junction","Accès à Faisceau Pair de Belleville-sur-Saône V4 à V16","46.10459","4.7273464","France"
"FR0000011472","Junction","Accès à Faisceau Impair de Belleville-sur-Saône V3 à V11","46.1066043","4.7277533","France"
"FR0000015893","TechnicalChange","Fin de ligne","44.35689","4.7282094","France"
"FR0000006458","DepotOrWorkshop","Faisceau Impair de Belleville-sur-Saône V3 à V11","46.1106585","4.7285731","France"
"FR0000007841","PrivateSiding","Duferco Morel (Km 0,625)","46.1171644","4.7287323","France"
"FR0000001501","Junction","Bif 776000/830000","46.1120221","4.728735","France"
"FR0000004679","Station","Belleville-sur-Saône","46.1120306","4.728853","France"
"FR0000007101","DepotOrWorkshop","Faisceau Pair de Belleville-sur-Saône V4 à V16","46.112675","4.72894","France"
"FR0000012357","Junction","Accès à Faisceau Pair de Belleville-sur-Saône V4 à V16","46.1135973","4.7291736","France"
"FR0000007261","PrivateSiding","Entrepôts du Beaujolais","46.1144098","4.7292802","France"
"FR0000007109","PrivateSiding","Duferco Morel (Km 0,484)","46.1160075","4.7293462","France"
"FR0000013844","Junction","Accès à Petit-Bois","49.7717693","4.7301888","France"
"FR0000004088","Station","Casino-Lacroix-Laval","45.7880178","4.7305858","France"
"FR0000007703","DepotOrWorkshop","Chantier Equipement","49.7536417","4.7317672","France"
"FR9900002069","Junction","Technical change","49.772214","4.7318234","France"
"FR0000005815","TrainTechnicalServices","UO Traction CA Nord","49.7535604","4.7319","France"
"FR0000006407","DepotOrWorkshop","Dépôt","49.7535604","4.7319","France"
"FR0000001220","Junction","Bif 760000/760311","46.9150303","4.7321262","France"
"FR0000000714","Junction","Bif 205000/205606","49.7405745","4.7321631","France"
"FR0000005209","Station","Mohon","49.7527263","4.733288","France"
"FR0000000295","Junction","Bif 204000/205000","49.7522546","4.7339048","France"
"FR0000007770","PrivateSiding","SA Combustible VILLIERS-SEMEUSE","49.7435123","4.7343672","France"
"FR0000011755","Junction","Accès à Faisceau AB","49.752056","4.7344079","France"
"FR0000006660","DepotOrWorkshop","Faisceau AB","49.7436103","4.7344392","France"
"FR0000001669","Junction","Bif 205000/205311","49.7450043","4.7354622","France"
"FR0000009317","DepotOrWorkshop","Faisceau Pair Blaisy-Bas","47.3778196","4.7355104","France"
"FR0000004659","Station","Charbonnières-les-Bains","45.7819423","4.7357524","France"
"FR0000014701","Junction","Accès à Faisceau Impair V21 à V25","46.9157552","4.7366756","France"
"FR0000000833","Junction","Bif des Angles (Roquemaure)","43.9734531","4.7369505","France"
"FR0000008191","DepotOrWorkshop","PIOLENC LGV","44.1613517","4.7381136","France"
"FR0000013941","Junction","Accès à Faisceau Pair V24-V26","46.916876","4.7381788","France"
"FR0000014702","Junction","Accès à Faisceau Impair V21 à V25","46.916488","4.7384961","France"
"FR0000001333","Junction","Bif 760306/760311","46.9181639","4.7393363","France"
"FR0000002750","Station","Monthermé","49.8656318","4.7406804","France"
"FR0000005245","DepotOrWorkshop","Base de maintenance de Roquemaure","44.0145426","4.7407077","France"
"FR0000006837","DepotOrWorkshop","Faisceau Chantier Equipement","49.8651693","4.7412779","France"
"FR0000003946","Station","Blaisy-Bas","47.3731849","4.7414401","France"
"FR0000006468","PrivateSiding","Km 656,1","44.6254842","4.7418005","France"
"FR0000012299","Junction","Accès à Faisceau impair","49.8131295","4.7419042","France"
"FR0000003466","Station","Romanèche-Thorins","46.1763075","4.7421793","France"
"FR0000008631","DepotOrWorkshop","Faisceau Impair Blaisy-Bas","47.3726909","4.7421899","France"
"FR9900002067","Junction","Technical change","46.9111081","4.742441","France"
"FR0000003330","Station","Nouzonville","49.8119669","4.7426574","France"
"FR0000006892","DepotOrWorkshop","Faisceau pair","49.8110941","4.7433884","France"
"FR0000004456","Station","Montélimar","44.5590427","4.7445622","France"
"FR0000001609","Junction","Bif 020000/070000","48.7212196","4.7446181","France"
"FR0000008682","DepotOrWorkshop"," Faisceau Pair Chagny","46.9095881","4.7451216","France"
"FR0000006139","DepotOrWorkshop","Faisceau Pair","44.5616259","4.7454601","France"
"FR9900003721","Junction","Accès à Faisceau Impair","44.5618935","4.7455748","France"
"FR0000011558","Junction","Accès à Faisceau V4","44.5619884","4.7456154","France"
"FR0000007159","DepotOrWorkshop","Faisceau Impair","44.5641733","4.746334","France"
"FR0000002064","Junction","Bif 204000/205311/204000","49.7482998","4.7465084","France"
"FR0000001044","Junction","Jct 760000/760306","46.9087749","4.7465616","France"
"FR0000008266","DepotOrWorkshop","Faisceau Pair V24-V26","46.9223484","4.7471855","France"
"FR0000007055","DepotOrWorkshop","Faisceau impair","49.8073226","4.7472552","France"
"FR0000008839","DepotOrWorkshop","Faisceau Impair V21 à V25","46.9225631","4.7476587","France"
"FR0000006517","DepotOrWorkshop","Faisceau V4","44.5699639","4.7481418","France"
"FR0000003548","Station","Le Méridien","45.7688371","4.7483777","France"
"FR0000004890","Station","Chagny","46.9072366","4.7486029","France"
"FR0000014494","Junction","Accès à  Faisceau Pair Chagny","46.9046883","4.7502594","France"
"FR9900001523","FreightTerminal","Le Pouzin","44.7514597","4.7502756","France"
"FR0000006273","DepotOrWorkshop","Faisceau Impair V3 à V11","44.7510264","4.750527","France"
"FR0000006312","DepotOrWorkshop","Faisceau Chagny Gare V5 à V11","46.9041648","4.7508198","France"
"FR0000006294","DepotOrWorkshop","Faisceau Pair V4 à V8","44.7504414","4.7508467","France"
"FR0000001895","Junction","Bif Sud de Chagny","46.9035156","4.7510149","France"
"FR0000000447","Junction","Bif 80000/804000","44.7497888","4.7510833","France"
"FR0000007864","DepotOrWorkshop","Chantier V pair","48.7214778","4.7535964","France"
"FR0000009515","PrivateSiding","Km 653,6","44.6457123","4.7539643","France"
"FR0000001111","Junction","Bif 865000/760306","46.9257669","4.7548231","France"
"FR9900004512","Junction","Technical change","45.7702252","4.7556785","France"
"FR0000002460","Station","Tassin","45.7617754","4.7586435","France"
"FR0000002982","Station","Rully","46.880416","4.7609098","France"
"FR0000005107","Station","Aubrives","50.1038891","4.7609272","France"
"FR0000000255","Junction","Bif de St-Paul (Tassin)","45.7618474","4.7610999","France"
"FR9900003620","Junction","Technical change","45.6705554","4.7620716","France"
"FR9900001165","DepotOrWorkshop","Faisceau Impair","45.6713263","4.7622822","France"
"FR0000005467","DepotOrWorkshop","Faisceau V3 à V7","45.5844184","4.7629718","France"
"FR0000004711","Station","Bogny-sur-Meuse","49.8583392","4.76329","France"
"FR0000005764","DepotOrWorkshop","Faisceau Remisage","45.6734084","4.7634036","France"
"FR0000002216","Station","Brignais","45.673706","4.7637491","France"
"FR0000000359","Junction","Bif Nord de Chagny","46.9319832","4.7641179","France"
"FR0000007437","PrivateSiding","Citroën","49.7396192","4.7641836","France"
"FR0000003376","Station","Chaponost","45.6988529","4.7645798","France"
"FR0000001059","Junction","Bif 022300/070000","48.7229281","4.7649093","France"
"FR9900001386","FreightTerminal","Cruas","44.6559936","4.7654542","France"
"FR0000004786","Station","Givors","45.5852497","4.7657661","France"
"FR0000007127","PrivateSiding","Km 651,3","44.6636368","4.7667865","France"
"FR0000004298","Station","Joigny-sur-Meuse","49.833761","4.7670052","France"
"FR0000009330","DepotOrWorkshop","Faisceau St-Clair-les-Roches Impair","45.4451791","4.7676659","France"
"FR0000008632","DepotOrWorkshop","Faisceau St-Clair-les-Roches Pair","45.4477806","4.7681721","France"
"FR0000015366","Junction","Accès à Faisceau St-Clair-les-Roches Impair","45.4371402","4.7685032","France"
"FR0000005711","DepotOrWorkshop","Faisceau Impair","45.5876955","4.7695392","France"
"FR0000001650","Junction","Bif 782000/782310","45.7624087","4.7695611","France"
"FR0000003979","Station","St-Clair-les-Roches","45.4502584","4.7697702","France"
"FR0000007378","DepotOrWorkshop","Faisceau Impair Pontanevaux","46.2097225","4.7697903","France"
"FR0000000053","Junction","Bif 750000/906000","45.5945133","4.7699471","France"
"FR0000000964","Junction","Bif Rac Sud","43.9446034","4.770223","France"
"FR0000006430","DepotOrWorkshop","Faisceau V12 Garage","45.9112952","4.7703245","France"
"FR0000008237","DepotOrWorkshop","Faisceau Impair","45.5948685","4.7703862","France"
"FR0000004748","Station","Francheville","45.7317298","4.7704082","France"
"FR0000001355","Junction","Bif 775000/782310","45.7573629","4.7704784","France"
"FR0000000890","Junction","Bif 775000/800000","45.59519","4.7705694","France"
"FR0000000317","Junction","Bif 750000/800000","45.5957394","4.7714143","France"
"FR0000013725","Junction","Accès à Faisceau Condrieu","45.463946","4.7716134","France"
"FR0000004526","Station","Alaï","45.7519132","4.7718373","France"
"FR9900001363","FreightTerminal","Clonas","45.4146646","4.7720333","France"
"FR0000001693","Junction","Bif 775000/775311","45.6041149","4.7720691","France"
"FR0000013511","Junction","Accès à ALLAN LGV","44.4844558","4.772173","France"
"FR0000002617","Station","Givors-Canal","45.596154","4.7721755","France"
"FR0000006249","PrivateSiding","Embt E D F","45.4119032","4.7724788","France"
"FR0000006552","PrivateSiding","EDF Km 558,5","45.411641","4.7725207","France"
"FR0000004755","Station","Pontanevaux","46.2132148","4.7727695","France"
"FR0000014501","Junction","Accès à Garage Impair Pontanevaux","46.2139606","4.7734215","France"
"FR0000010881","Junction","Accès à Garage Pair Pontanevaux","46.21406","4.7735084","France"
"FR0000004940","Station","Fontaines-Mercurey","46.8512933","4.7750615","France"
"FR0000001487","Junction","Bif 906000/906606","45.5970133","4.7750766","France"
"FR0000000956","Junction","Bif du Grand-Sud","43.9259583","4.7751017","France"
"FR0000007941","DepotOrWorkshop","ALLAN LGV","44.4935082","4.776074","France"
"FR0000016155","TechnicalChange","Fin de ligne","45.5910291","4.7761343","France"
"FR0000001839","Junction","Bif 800000/800316","44.7945036","4.7763043","France"
"FR0000000516","Junction","Bif 80000/800311","44.7982509","4.7771804","France"
"FR0000008100","DepotOrWorkshop","Faisceau Condrieu","45.4715371","4.77741","France"
"FR0000004265","Station","Mâcon-Loché-TGV","46.2827588","4.7784473","France"
"FR0000002752","Station","Quincieux","45.9067066","4.778697","France"
"FR0000000031","Junction","Bif 800311/800316/913000","44.7954193","4.7791779","France"
"FR0000001584","Junction","Bif de Nîmes (Avignon)","43.9426269","4.779298","France"
"FR0000008687","DepotOrWorkshop","Garage Impair Pontanevaux","46.2213991","4.7795901","France"
"FR0000006020","DepotOrWorkshop","Garage Pair Pontanevaux","46.2214225","4.7796063","France"
"FR0000005469","ShuntingYard","Badan","45.6015661","4.7796075","France"
"FR0000010132","Junction","Accès à Badan","45.6015661","4.7796075","France"
"FR0000003385","Station","Écully-la-Demi-Lune","45.7658611","4.7796786","France"
"FR0000002010","Junction","Bif 750000/775311","45.601744","4.7798555","France"
"FR0000001722","Junction","Bif 750316/775316","45.5975727","4.7801809","France"
"FR0000000664","Junction","Bif 752000/778300","46.2802883","4.7805513","France"
"FR0000013546","Junction","Accès à Faisceau impair","43.8933823","4.78084","France"
"FR0000001717","Junction","Bif Rac Nord","43.9488701","4.7810266","France"
"FR0000011175","Junction","Accès à Faisceau A V1 à V14","49.7141614","4.7813155","France"
"FR0000011434","Junction","Accès à Faisceau V12 Garage","45.9051988","4.7813261","France"
"FR0000007974","DepotOrWorkshop","Faisceau pair n°2","43.8944497","4.7814719","France"
"FR0000006938","DepotOrWorkshop","Faisceau D","49.7156333","4.7820328","France"
"FR0000011174","Junction","Accès à Faisceau A V1 à V14","49.7160677","4.7821873","France"
"FR9900001993","FreightTerminal","Barbentane-Rognonas","43.8958396","4.7822789","France"
"FR0000001565","Junction","Bif de Badan","45.5960837","4.7825274","France"
"FR0000007969","DepotOrWorkshop","Faisceau impair","43.8965299","4.7826816","France"
"FR0000013104","Junction","Accès à Faisceau Pair","44.8055013","4.7831626","France"
"FR0000014613","Junction","Accès à Faisceau Impair","44.8055283","4.7831983","France"
"FR0000002896","Station","Lumes","49.7330424","4.7832514","France"
"FR0000000567","Junction","Bif 824000/824306","43.9381122","4.7834526","France"
"FR9900001503","FreightTerminal","La Voulte-sur-Rhône","44.8058179","4.7835962","France"
"FR9900001264","FreightTerminal","Badan","45.6028686","4.7836296","France"
"FR9900003737","Junction","Bif 935904/935903","43.4146256","4.7838496","France"
"FR0000005122","Station","Crêches-sur-Saône","46.2461781","4.7841685","France"
"FR0000006876","PrivateSiding","Coop AGRICOLE DE CHAMPAGNE CEREALES","49.0807725","4.7847806","France"
"FR0000011173","Junction","Accès à Faisceau A V1 à V14","49.7266021","4.7850325","France"
"FR0000006244","DepotOrWorkshop","Faisceau A V1 à V14","49.7267019","4.7850441","France"
"FR0000006290","DepotOrWorkshop","Faisceau pair n°1","43.9009595","4.7852654","France"
"FR0000001373","Junction","Bif 830336/906000","45.592273","4.7853488","France"
"FR0000005735","PrivateSiding","Embt Km 292,9","47.3396496","4.7859442","France"
"FR0000003255","Station","Avignon-TGV","43.9218038","4.7861402","France"
"FR0000008335","PrivateSiding","HOLCIM","48.1772124","4.7866039","France"
"FR0000016219","TechnicalChange","Fin de ligne","43.9216597","4.7871088","France"
"FR0000000566","Junction","Bif 020000/022300","48.7185456","4.7876581","France"
"FR9900002080","Junction","Technical change","46.2680763","4.788213","France"
"FR0000008774","DepotOrWorkshop","Faisceau Impair","44.8083824","4.7889922","France"
"FR9900001813","FreightTerminal","Valmy","49.0802293","4.7894709","France"
"FR0000001187","Junction","Bif Rac Sud TGV","46.2593769","4.7900219","France"
"FR0000010998","Junction","Accès à Faisceau pair 4 à 14","43.9535626","4.7905447","France"
"FR0000010130","Junction","Accès à Badan","45.6036434","4.7906579","France"
"FR0000006718","DepotOrWorkshop","Faisceau Peyraud V4","45.298961","4.7917221","France"
"FR0000007532","DepotOrWorkshop","faisceau pair","49.0799966","4.7919085","France"
"FR0000001949","Junction","Bif Rac Nord","45.2986099","4.7919516","France"
"FR0000006112","DepotOrWorkshop","Faisceau pair 4 à 14","43.9588723","4.7928326","France"
"FR0000015209","Junction","Accès à Faisceau Impair Peyraud","45.2906818","4.7929487","France"
"FR0000000174","Junction","Bif 797311/800000","45.2890196","4.7931367","France"
"FR0000000304","Junction","Bif 797000/797311","45.2939853","4.7933305","France"
"FR0000009213","DepotOrWorkshop","Faisceau Impair Peyraud","45.294463","4.7933994","France"
"FR0000008297","DepotOrWorkshop","Faisceau Peyraud VA Circulation","45.2945436","4.7934159","France"
"FR0000006969","DepotOrWorkshop","Faisceau V22 et V24","45.5836783","4.7937786","France"
"FR0000007658","DepotOrWorkshop","Faisceau Pair","44.8104792","4.793867","France"
"FR0000010129","Junction","Accès à Badan","45.6055939","4.7941109","France"
"FR0000012862","Junction","Accès à Faisceau Pair","45.5832699","4.7943479","France"
"FR0000008245","DepotOrWorkshop","Faisceau Impair Mâcon","45.8985041","4.7943542","France"
"FR0000003236","Station","Nouvion-sur-Meuse","49.6971854","4.7948003","France"
"FR0000000830","Junction","Bif 830000/906000","45.5830834","4.7949104","France"
"FR0000004535","Station","Chasse-sur-Rhône","45.5829209","4.7950433","France"
"FR0000002493","Station","Le Péage-de-Roussillon","45.3716645","4.7952531","France"
"FR0000002293","Station","Meursault","46.969024","4.7954197","France"
"FR0000007477","DepotOrWorkshop","Faisceau Pair","45.5997798","4.7956976","France"
"FR0000004942","Station","Le Sablon","45.607023","4.7959952","France"
"FR0000000557","Junction","Bif 830000/830359","43.9261798","4.7960124","France"
"FR0000000104","Junction","Bif Rac Nord de Mâcon","46.2690917","4.7961444","France"
"FR0000010106","Junction","Accès à Triage Avignon","43.9253524","4.7963946","France"
"FR0000007406","DepotOrWorkshop","Faisceau pair","43.6230535","4.7966045","France"
"FR0000001224","Junction","Bif 797000/800306","45.2976794","4.7966224","France"
"FR0000006036","DepotOrWorkshop","Faisceau Equipement","43.9413813","4.7966681","France"
"FR9900003498","Junction","Bif 830000/830336","45.6005663","4.7967585","France"
"FR0000001296","Junction","Bif 935904/935311","43.4113215","4.7968162","France"
"FR0000001695","Junction","Bif 824000/830000","43.9415543","4.7977024","France"
"FR0000009006","PrivateSiding","Km 534,9","45.5693786","4.7979952","France"
"FR0000000838","Junction","Bif 830000/783000","45.8942871","4.7990453","France"
"FR9900002188","Junction","Technical change","46.2792481","4.7991568","France"
"FR9900003300","Junction","Technical change","45.7672365","4.7994053","France"
"FR0000001367","Junction","Bif de St-Paul","45.7759468","4.7994714","France"
"FR0000006784","PrivateSiding","Granulats Nord-Est","50.1295407","4.7995291","France"
"FR0000005451","ShuntingYard","Triage Avignon","43.9415409","4.7996886","France"
"FR0000001384","Junction","Bif 935311/935903","43.4020021","4.7997596","France"
"FR0000009340","DepotOrWorkshop","Faisceau impair 3 à 17","43.4020021","4.7997596","France"
"FR0000006836","TrainTechnicalServices","UPM d'Avignon (Technicentre PACA)","43.9415616","4.7998735","France"
"FR0000008620","DepotOrWorkshop","Faisceau Impair","49.6968873","4.7999863","France"
"FR0000005303","DepotOrWorkshop","Faisceau V4 et V6","45.8924695","4.8004311","France"
"FR0000005450","DepotOrWorkshop","Faisceau 4 et 6","43.4013905","4.800536","France"
"FR0000006667","PrivateSiding","Rhône-Poulenc","45.3447231","4.8007541","France"
"FR0000008618","PrivateSiding","Rhône-Poulenc (Sortie)","45.3447231","4.8007541","France"
"FR9900004089","Junction","Technical change","49.0793943","4.8014447","France"
"FR0000002889","Station","St-Martin-de-Crau","43.6218857","4.8016326","France"
"FR0000006179","DepotOrWorkshop","Faisceau impair","43.6218314","4.8018505","France"
"FR0000011763","Junction","Accès à Rhône-Poulenc","45.339014","4.8018992","France"
"FR9900001360","FreightTerminal","Clairvaux","48.1582312","4.80202","France"
"FR9900001742","FreightTerminal","Salaise","45.3373543","4.802173","France"
"FR0000001032","Junction","Bif de Lyon-Vaise","45.7657537","4.8022147","France"
"FR0000010444","Junction","Accès à EMT Lyon-Vaise UPT Lyon-Vaise","45.7788796","4.8022639","France"
"FR0000005533","PrivateSiding","Société Civile immobilière","43.6217616","4.8022995","France"
"FR0000005492","DepotOrWorkshop","Faisceau impair","43.941593","4.8023893","France"
"FR0000011765","Junction","Accès à Rhône-Poulenc","45.3351953","4.8026012","France"
"FR0000008608","DepotOrWorkshop","Faisceau Pair","45.3343398","4.8027651","France"
"FR0000001526","Junction","Bif 797000/797306","45.3015616","4.803246","France"
"FR0000003203","Station","Lyon-Vaise","45.780147","4.8034706","France"
"FR0000006453","PrivateSiding","Sous-station n°15","43.6213794","4.8038133","France"
"FR9900003157","FreightTerminal","Port-St-Louis-du-Rhône","43.399211","4.8038706","France"
"FR0000000394","Junction","Bif Rac Nord TGV","46.2831625","4.8042623","France"
"FR0000004459","Station","St-Germain-au-Mont-d'Or","45.8885789","4.8045079","France"
"FR0000006084","PrivateSiding","Distriport","43.4165889","4.8045251","France"
"FR9900001984","FreightTerminal","Loire","45.5641079","4.8048289","France"
"FR0000003730","Station","Lyon-Gorge-de-Loup","45.7660213","4.8049149","France"
"FR9900003081","Station","Avignon-Centre","43.9411862","4.8050913","France"
"FR0000005311","DepotOrWorkshop","Faisceau 102 et 104","43.3877473","4.8060511","France"
"FR0000006305","DepotOrWorkshop","Faisceau pair 8 à 12","43.3974784","4.8067846","France"
"FR0000012259","Junction","Accès à Faisceau Impair","45.7838926","4.8068157","France"
"FR0000009412","DepotOrWorkshop","Faisceau Entrepôt","45.8861446","4.8069469","France"
"FR0000015378","Junction","Accès à Faisceau impair 3 à 17","43.3971481","4.8074038","France"
"FR0000013342","Junction","Accès à Faisceau Pair","45.30948","4.8075353","France"
"FR0000013339","Junction","Accès à Faisceau Pair","45.3094836","4.8075753","France"
"FR0000011192","Junction","Accès à Faisceau Pair","45.7851842","4.8080858","France"
"FR0000001495","Junction","Bif Rac de Villeneuve","43.9415358","4.8083476","France"
"FR0000005929","PrivateSiding","Km 536,0","45.5616926","4.808366","France"
"FR0000005695","TrainTechnicalServices","EMT Lyon-Vaise UPT Lyon-Vaise","45.786375","4.8092285","France"
"FR0000007172","PrivateSiding","Km 84,0","45.3000412","4.8094958","France"
"FR0000013341","Junction","Accès à Faisceau Pair","45.3003363","4.8095503","France"
"FR0000007819","DepotOrWorkshop","Faisceau Pair","45.2997138","4.8096073","France"
"FR0000000215","Junction","Bif 830000/907000","45.2995102","4.8096667","France"
"FR0000001858","Junction","Bif 830000/797000","45.2994834","4.8096695","France"
"FR0000007300","ShuntingYard","St-Rambert d'Albon","45.2990384","4.8097885","France"
"FR0000008049","DepotOrWorkshop","Faisceau V7 à V27","45.2990384","4.8097885","France"
"FR0000012624","Junction","Accès à St-Rambert d'Albon","45.2989902","4.8098018","France"
"FR0000004048","Station","St-Rambert-d'Albon","45.297716","4.8102431","France"
"FR0000004071","Station","Mâlain","47.3270636","4.81047","France"
"FR0000005889","PrivateSiding","Embt FRAHUIL","43.3902598","4.8108779","France"
"FR0000008701","PrivateSiding","Emin Leydier","45.2221303","4.8110426","France"
"FR0000000188","Junction","Bif 935903/935905","43.3938122","4.8113824","France"
"FR0000009296","DepotOrWorkshop","Faisceau V4","45.2934513","4.8118019","France"
"FR9900003659","Junction","Technical change","45.2955575","4.8119423","France"
"FR0000001179","Junction","Bif de Cavaillon","43.9418356","4.8120784","France"
"FR0000003888","Station","Vernaison","45.645493","4.8133155","France"
"FR0000008777","TrainTechnicalServices","Technicentre d'Oullins","45.7211939","4.8134795","France"
"FR0000004408","Station","Oullins","45.7167281","4.8134935","France"
"FR0000008082","PrivateSiding","Embt AIT","43.3839182","4.8140163","France"
"FR0000004023","Station","St-Vallier-sur-Rhône","45.1857049","4.8144999","France"
"FR0000013689","Junction","Accès à Faisceau St-Vallier-sur-Rhône Impair","45.1869919","4.8145388","France"
"FR0000000275","Junction","Bif 935903/935906","43.3911973","4.8147858","France"
"FR0000008377","DepotOrWorkshop","Faisceau 1 à 4","43.3911973","4.8147858","France"
"FR0000007724","DepotOrWorkshop","Faisceau 31 à 35","43.3910563","4.8148285","France"
"FR0000015972","TechnicalChange","Fin de ligne","43.3907242","4.8149089","France"
"FR9900000760","Junction","Accès à Faisceau Impair V131 à V137","45.7140466","4.8149682","France"
"FR0000005279","PrivateSiding","Trayvou","45.7242902","4.8150217","France"
"FR0000001690","Junction","Bif de Savoie (Mâcon)","46.2624193","4.8157727","France"
"FR0000008070","DepotOrWorkshop","Faisceau St-Vallier-sur-Rhône Impair","45.195587","4.8157917","France"
"FR0000005587","DepotOrWorkshop","Faisceau Impair","45.7324033","4.8162787","France"
"FR0000006710","DepotOrWorkshop","Faisceau Pair","45.7324345","4.8163025","France"
"FR0000006756","DepotOrWorkshop","Faisceau 6 Tiroir","46.2943858","4.8164692","France"
"FR9900003518","DepotOrWorkshop","Faisceau St-Vallier-sur-Rhône Pair","45.1994323","4.8165087","France"
"FR0000011833","Junction","Accès à Faisceau Pair","45.7347432","4.8166877","France"
"FR0000006739","DepotOrWorkshop","Faisceau Orange V5 V19","44.1389031","4.816695","France"
"FR0000001652","Junction","Bif 750000/750686","45.7342123","4.8167453","France"
"FR0000005222","Station","Loriol","44.7545585","4.8170405","France"
"FR0000010292","Junction","Accès à Faisceau Impair","45.7407111","4.8174195","France"
"FR0000006061","TrainTechnicalServices","EMT Avignon UPT Avignon","43.9421352","4.8174742","France"
"FR0000005737","DepotOrWorkshop","faisceau impair","50.1390697","4.8174997","France"
"FR0000002603","Station","Givet","50.1403078","4.8176759","France"
"FR0000007108","DepotOrWorkshop","Faisceau pair","50.1409102","4.8176922","France"
"FR0000006255","DepotOrWorkshop","Faisceau Pair","45.7926951","4.8179256","France"
"FR0000012367","Junction","Accès à Faisceau pair","50.1458894","4.817935","France"
"FR0000003406","Station","Sérézin","45.6272252","4.8179365","France"
"FR0000006176","PrivateSiding","Compagnie Fluviale et maritime de transports","50.1467324","4.8179494","France"
"FR0000007024","DepotOrWorkshop","Faisceau Impair","45.7927121","4.8179708","France"
"FR9900001023","TechnicalChange","Fin de ligne exploitée","50.1509115","4.8179846","France"
"FR0000010335","Junction","Accès à Faisceau Mâcon V5 à V15","46.2932364","4.8181901","France"
"FR9900002008","FreightTerminal","Mâcon-Port-Fluvial","46.2939441","4.8182692","France"
"FR0000008156","PrivateSiding","Port Fluvial","46.2949941","4.8184333","France"
"FR0000014033","Junction","Accès à Faisceau 4 Tiroir","46.2968271","4.8191634","France"
"FR0000006083","TrainTechnicalServices","EMT Avignon UPT Miramas","43.9419477","4.8193582","France"
"FR0000013555","Junction","Accès à Faisceau Mâcon V10 à V36","46.2971033","4.8194138","France"
"FR0000009363","DepotOrWorkshop","Faisceau Impair V131 à V137","45.7094841","4.8195826","France"
"FR0000003118","Station","Orange","44.1374404","4.8196266","France"
"FR0000000011","Junction","Bif 830000/883000","46.2970675","4.8197075","France"
"FR0000001115","Junction","Fin de ligne exploitée","43.3901872","4.8197653","France"
"FR0000010336","Junction","Accès à Faisceau Mâcon V5 à V15","46.2974186","4.8200017","France"
"FR0000008513","PrivateSiding","Embt Cie  Ch. Le Borgne","43.3902851","4.8202268","France"
"FR0000008331","DepotOrWorkshop","Faisceau 4 Tiroir","46.2974841","4.8203215","France"
"FR0000015970","TechnicalChange","Fin de ligne","43.3842351","4.8206659","France"
"FR0000008437","DepotOrWorkshop","Faisceau 21 à 25 bis","43.3903415","4.8206819","France"
"FR0000000329","Junction","Bif 750000/830000","45.7500954","4.8218358","France"
"FR9900003507","Junction","Bif 913000/830341","44.7777999","4.8221111","France"
"FR0000005652","DepotOrWorkshop","Faisceau Remisage","45.7496959","4.8224236","France"
"FR0000006262","DepotOrWorkshop","Faisceau D attente machines","46.3004661","4.822751","France"
"FR0000001793","Junction","Bif Rac d'Avignon","43.9514451","4.8227775","France"
"FR9900003744","Junction","Bif 830341/830346","44.7774059","4.8230881","France"
"FR0000002170","Station","Lyon-Perrache","45.7482629","4.8231716","France"
"FR0000007977","DepotOrWorkshop","Faisceau Mâcon V10 à V36","46.3011424","4.8233238","France"
"FR0000007616","DepotOrWorkshop","Faisceau V61 à 68","43.4131612","4.8237926","France"
"FR0000006535","DepotOrWorkshop","Faisceau Impair","44.7771053","4.8238277","France"
"FR0000005615","DepotOrWorkshop","Faisceau Mâcon V5 à V15","46.3022894","4.8242463","France"
"FR9900003836","Junction","Technical change","43.3906842","4.8244154","France"
"FR0000000138","Junction","Bif de La Voute","44.7697631","4.8245666","France"
"FR0000003016","Station","Mâcon-Ville","46.30268","4.8245691","France"
"FR0000022837","DepotOrWorkshop","Faisceau Mâcon V42 à V52","46.302751","4.8246278","France"
"FR0000005705","DepotOrWorkshop","Faisceau dépôt","46.3028748","4.8247301","France"
"FR0000004682","Station","Pierre-Bénite","45.7065829","4.8247823","France"
"FR0000011874","Junction","Accès à Faisceau Orange V5 V19","44.1361438","4.8249876","France"
"FR0000011003","Junction","Accès à Sibelin","45.6363866","4.8252574","France"
"FR0000008040","DepotOrWorkshop","Faisceau C Tiroir","46.3035514","4.825294","France"
"FR0000000864","Junction","I 830346/830346","44.7720606","4.8253302","France"
"FR0000003708","Station","Lyon-St-Paul","45.7662065","4.8267234","France"
"FR0000000498","Junction","Bif de Briançon (Livron)","44.7770811","4.8283991","France"
"FR0000008006","PrivateSiding","Km 538,4 (CNR)","45.5457114","4.8288387","France"
"FR0000009027","DepotOrWorkshop","Faisceau V25 et V27","45.7471116","4.8290561","France"
"FR0000008798","DepotOrWorkshop","Faisceau Débords","45.6403901","4.8292855","France"
"FR0000002142","Station","Couzon-au-Mont-d'Or","45.8487068","4.8293858","France"
"FR0000014129","Junction","Accès à ELF ANTAR","45.6412786","4.8301764","France"
"FR0000004923","Station","Livron","44.7795997","4.8303381","France"
"FR0000007922","DepotOrWorkshop","Faisceau Avignon Fontcouverte V5 à V11 V15 à V29","43.9384219","4.8307499","France"
"FR0000008588","PrivateSiding","CARB","48.1534605","4.8308602","France"
"FR0000006925","DepotOrWorkshop","Faisceau pair Militaire","44.1348082","4.8311504","France"
"FR9900003700","Junction","Accès à Faisceau impair","44.7812637","4.8317494","France"
"FR0000009662","DepotOrWorkshop","Faisceau Pair","45.7460699","4.8318602","France"
"FR0000000907","Junction","Bif de Fontcouverte","43.9380146","4.8320584","France"
"FR0000006391","PrivateSiding","Commune","45.6889136","4.8321354","France"
"FR0000022885","Station","Irigny-Yvours","45.6896469","4.8322641","France"
"FR0000004794","Station","Albigny-Neuville","45.87488","4.8326948","France"
"FR0000002112","Junction","Bif 830000/830341","44.7826284","4.8329415","France"
"FR9900002000","FreightTerminal","Avignon-Fontcouverte","43.9377057","4.8330385","France"
"FR0000010963","Junction","Accès à EMT Avignon UPT Miramas","43.9376539","4.8332027","France"
"FR0000011005","Junction","Accès à Sibelin","45.644102","4.8333003","France"
"FR0000006416","DepotOrWorkshop","Faisceau impair V3 à V11","45.058861","4.8339528","France"
"FR0000007375","DepotOrWorkshop","Faisceau Réception Nord Sud Pair V6 à  V16","43.9374067","4.8339861","France"
"FR0000009224","PrivateSiding","STEF","43.9372446","4.834503","France"
"FR0000005621","DepotOrWorkshop","Faisceau Chantier TAA","43.9370376","4.8351633","France"
"FR0000007571","DepotOrWorkshop","Faisceau TAA","43.9370376","4.8351633","France"
"FR0000009638","PrivateSiding","Réparateurs","43.4113734","4.835859","France"
"FR9900003242","FreightTerminal","Fos-Graveleau","43.4113367","4.8371477","France"
"FR0000013049","Junction","Accès à Faisceau V61 à 68","43.4113241","4.8372323","France"
"FR0000008555","DepotOrWorkshop","Faisceau Impair","45.745335","4.8372982","France"
"FR0000007504","PrivateSiding","Brûle Tabac","43.4112524","4.8376256","France"
"FR0000008195","DepotOrWorkshop","Faisceau V203 à 213","43.4112524","4.8376256","France"
"FR0000001892","Junction","Bif 830000/867000","46.7844873","4.8377961","France"
"FR9900002043","FreightTerminal","Fos-Viguerat","43.4584812","4.8378722","France"
"FR0000007606","DepotOrWorkshop","Faisceau Orange V21 à V27 impair","44.1333577","4.8380565","France"
"FR0000008492","DepotOrWorkshop","Faisceau impair","44.7891262","4.8384181","France"
"FR0000000212","Junction","Bif 935902/935903","43.4606757","4.8385768","France"
"FR0000009652","PrivateSiding","ASCOMETAL","43.4503478","4.8387321","France"
"FR9900003971","DepotOrWorkshop","Desserte Paire","46.7841545","4.8387681","France"
"FR0000005351","DepotOrWorkshop","Faisceau Impair 15 a 31","46.7839909","4.8392106","France"
"FR0000005400","PrivateSiding","ARKEMA-EFFEIL-LYONDELL","43.4475716","4.8393813","France"
"FR0000014178","Junction","Accès à Faisceau 21 à 25 bis","43.39143","4.8396454","France"
"FR0000003056","Station","Tain-l'Hermitage-Tournon","45.072295","4.8397509","France"
"FR0000016157","TechnicalChange","Fin de ligne","43.40835","4.8398146","France"
"FR0000010066","Junction","Accès à Faisceau St-Rémy Réception et Triage Pair","46.7671037","4.8401065","France"
"FR0000014717","Junction","Accès à Faisceau St-Rémy 65 a 85","46.7672551","4.8402346","France"
"FR0000008401","PrivateSiding","ELF ANTAR","45.6494342","4.840713","France"
"FR0000003071","Station","Lyon-Jean-Macé","45.744401","4.8410507","France"
"FR0000001311","Junction","Bif 204000/215000","49.7006369","4.8410753","France"
"FR0000009611","DepotOrWorkshop","Faisceau pair","45.0720782","4.8410865","France"
"FR0000009741","TechnicalChange","Fin de ligne exploitée","46.7738106","4.8419055","France"
"FR0000000196","Junction","Bif 772000/830000","46.7741464","4.8426523","France"
"FR0000015810","Junction","Accès à Faisceau Pair","45.7434014","4.8427488","France"
"FR0000007461","PrivateSiding","St Gobain","46.7978171","4.8431755","France"
"FR0000003732","Station","Chalon-sur-Saône","46.7814691","4.8433003","France"
"FR0000005864","DepotOrWorkshop","Chantier Croix Barret","45.7430335","4.843306","France"
"FR0000003048","Station","Vrigne-Meuse","49.700912","4.8433308","France"
"FR0000007666","DepotOrWorkshop","Faisceau St-Cosme V35 à V45","46.7813493","4.8434052","France"
"FR0000012125","Junction","Accès à Faisceau pair Militaire","44.1322562","4.8435383","France"
"FR0000008850","DepotOrWorkshop","Faisceau St-Rémy 65 a 85","46.7751929","4.8438479","France"
"FR0000000755","Junction","Bif de la Part-Dieu","45.7426986","4.8439379","France"
"FR0000010064","Junction","Accès à Faisceau St-Rémy Réception et Triage Pair","46.7757495","4.8440564","France"
"FR0000005542","PrivateSiding","Air Liquide","43.4709748","4.8441167","France"
"FR0000013488","Junction","Accès à Faisceau Avignon Fontcouverte V5 à V11 V15 à V29","43.9342183","4.8441527","France"
"FR0000001779","Junction","Bif 830000/882000","46.7762206","4.8441966","France"
"FR9900001556","FreightTerminal","Lyon-Guillotière","45.7424968","4.8442614","France"
"FR0000013116","Junction","Accès à Faisceau St-Cosme V35 à V45","46.7767744","4.8444071","France"
"FR0000005422","DepotOrWorkshop","Faisceau St-Rémy Réception et Triage Pair","46.7785162","4.8445203","France"
"FR0000007081","DepotOrWorkshop","Depôt de la Mouche","45.7421268","4.8447645","France"
"FR9900001765","FreightTerminal","Sibelin","45.6527486","4.8449639","France"
"FR0000012725","Junction","Accès à Faisceau Réception Nord Sud Pair V6 à  V16","43.9339286","4.8450843","France"
"FR0000014334","Junction","Accès à Faisceau Impair","45.7412663","4.8456875","France"
"FR0000014469","Junction","Accès à Faisceau  Impair Beaune","47.0200277","4.8457725","France"
"FR0000007471","TrainTechnicalServices","Technicentre TGV de Lyon","45.7406097","4.8463762","France"
"FR0000003939","Station","Collonges-Fontaines","45.8289722","4.8465757","France"
"FR0000005270","DepotOrWorkshop","Faisceau Réception","45.8198827","4.8469656","France"
"FR9900002039","FreightTerminal","Port-Fluvial-de-Chalon-sur-Saône","46.800771","4.8470069","France"
"FR0000001879","Junction","Jct 830000/893000","45.8204678","4.8473112","France"
"FR0000000270","Junction","Bif Part-Dieu (Lyon)","45.7276784","4.8473896","France"
"FR0000005244","TrainTechnicalServices","ET Lyon-Mouche UPT Lyon-Mouche","45.739781","4.8474193","France"
"FR0000001883","Junction","Bif 830000/893306","45.7279951","4.8474582","France"
"FR9900001557","FreightTerminal","Port-Édouard-Herriot","45.7279951","4.8474582","France"
"FR0000010510","Junction","Accès à Faisceau Relais Pair","45.7280769","4.8476904","France"
"FR0000001562","Junction","Bif St-Clair (Lyon)","45.826888","4.8479485","France"
"FR0000001327","Junction","Bif 830000/905000","45.7230938","4.8479879","France"
"FR0000009664","DepotOrWorkshop","Faisceau Equipement","45.6565374","4.847993","France"
"FR0000000706","Junction","Jct 830000/893306","45.7206023","4.8480636","France"
"FR0000016532","Junction","Accès à Technicentre TGV de Lyon","45.7204845","4.8480851","France"
"FR0000005742","DepotOrWorkshop","Faisceau Relais Pair","45.7295642","4.8480942","France"
"FR0000008979","DepotOrWorkshop","Faisceau Relais Impair","45.7294541","4.8482058","France"
"FR0000014902","Junction","Accès à Faisceau Relais Impair","45.721143","4.8483486","France"
"FR0000010513","Junction","Accès à Faisceau Relais Pair","45.7195363","4.8484503","France"
"FR0000009547","DepotOrWorkshop","Faisceau pair V6 à V14","44.9512538","4.8485826","France"
"FR0000011006","Junction","Accès à Sibelin","45.6577208","4.8488016","France"
"FR0000005171","Station","Beaune","47.0228212","4.8488392","France"
"FR0000007387","PrivateSiding","Artillerie","45.7301767","4.8488793","France"
"FR0000005624","DepotOrWorkshop","Faisceau impair","45.0707495","4.8489727","France"
"FR0000001143","Junction","Bif 893306/905000","45.7184704","4.8489872","France"
"FR0000010511","Junction","Accès à Faisceau Relais Pair","45.719769","4.849252","France"
"FR0000005473","DepotOrWorkshop","Faisceau Pair","45.7193676","4.8493207","France"
"FR0000001563","Junction","Jct 830000/905000","45.7166255","4.8494069","France"
"FR0000002744","Station","St-Péray","44.9478116","4.8505425","France"
"FR0000016115","TechnicalChange","Fin de ligne","43.3928638","4.8510783","France"
"FR0000000647","Junction","Bif de St-Fons (Lyon)","45.7107787","4.8511183","France"
"FR9900003783","TechnicalChange","Fin de ligne exploitée","46.8114023","4.8513572","France"
"FR0000001558","Junction","Bif 830000/893000/893306","45.739174","4.8515723","France"
"FR0000006324","PrivateSiding","Rhône-Poulenc","45.6933648","4.8520404","France"
"FR9900003787","TechnicalChange","Fin de ligne exploitée","44.1304508","4.8521351","France"
"FR0000002324","Station","St-Fons","45.7061486","4.8523499","France"
"FR0000001007","Junction","Bif 830366/893000","45.7393835","4.8524388","France"
"FR0000006117","ShuntingYard","Sibelin","45.6647616","4.8525151","France"
"FR0000005211","Station","Feyzin","45.6657928","4.8529296","France"
"FR0000008989","PrivateSiding","Chermoxat","46.7712392","4.852986","France"
"FR0000008664","DepotOrWorkshop","Faisceau  Impair Beaune","47.0269671","4.8530554","France"
"FR0000005545","PrivateSiding","SATEBA","46.8105824","4.8531253","France"
"FRZZY0000003","DomesticBorderPoint","Limite SNCF-RESEAU - GPM Marseille","43.4263","4.8532","France"
"FR0000006238","PrivateSiding","SYMAB","47.0272262","4.8533146","France"
"FR0000007732","DepotOrWorkshop","Faisceau du Môle Central Minéralier","43.4257574","4.8537074","France"
"FR0000009114","DepotOrWorkshop","Faisceau Pair Beaune V4 à V14","47.027809","4.8538679","France"
"FR0000007132","PrivateSiding","Evere","43.4255065","4.8539676","France"
"FR0000007165","PrivateSiding","VIGNA","46.8094283","4.8545383","France"
"FR0000005933","PrivateSiding","Air-Liquide","45.6841714","4.8550841","France"
"FR0000006950","PrivateSiding","LAURENT","46.8086895","4.8562745","France"
"FR0000007202","PrivateSiding","Phillips Eclairage","46.8085454","4.857033","France"
"FR0000012564","Junction","Accès à Faisceau pair","43.9661796","4.8571133","France"
"FR0000000974","Junction","Bif 867000/867616","46.8091569","4.8578371","France"
"FR0000009510","TrainTechnicalServices","EMT Vénissieux UPT Vénissieux","45.7146567","4.857909","France"
"FR0000000103","Junction","Bif de Vénissieux","45.7145477","4.8588322","France"
"FR0000000201","Junction","Bif 867000/867606","46.8101179","4.8590818","France"
"FR0000008977","DepotOrWorkshop","Brotteaux remisages impair","45.7700381","4.8593165","France"
"FR0000009146","DepotOrWorkshop","Faisceau impair","43.968335","4.8593294","France"
"FR0000006944","DepotOrWorkshop","Brotteaux remisages pair","45.7698414","4.8594558","France"
"FR0000001553","Junction","Bif 867606/867612","46.8106891","4.8594676","France"
"FR0000000982","Junction","Bif de Sathonay (Lyon)","45.7881489","4.8600794","France"
"FR0000012153","Junction","Accès à Brotteaux remisages pair","45.7636562","4.8601375","France"
"FR0000003887","Station","Lyon-Part-Dieu","45.7605507","4.8602043","France"
"FR0000014899","Junction","Accès à Brotteaux remisages impair","45.7642959","4.8605982","France"
"FR0000003432","Station","Lantenay","47.3351253","4.8609915","France"
"FR0000013206","Junction","Accès à Faisceau du Môle Central Minéralier","43.418272","4.8612428","France"
"FR0000006717","PrivateSiding","Pechiney","43.4177572","4.8617601","France"
"FR0000005538","PrivateSiding","Aproport","46.7709434","4.8620705","France"
"FR9900003540","DepotOrWorkshop","Voie Lourde","46.7709434","4.8620705","France"
"FR0000009100","DepotOrWorkshop","Faisceau Pair","45.7906797","4.8622099","France"
"FR0000005405","DepotOrWorkshop","Faisceau Impair","45.7140132","4.8623161","France"
"FR9900003510","DepotOrWorkshop","Faisceau pair","43.9735845","4.8625801","France"
"FR9900003369","Junction","Accès à Voie Lourde","46.7709371","4.8626569","France"
"FR0000015601","Junction","Accès à EMT Vénissieux UPT Vénissieux","45.7137713","4.8631417","France"
"FR0000006120","PrivateSiding","Communauté d'agglomération","45.530821","4.8634722","France"
"FR0000008799","PrivateSiding","SEVA","46.8161715","4.863754","France"
"FR0000001467","Junction","Bif 867606/867610/867808","46.8166766","4.8638328","France"
"FR0000007510","PrivateSiding","Raffinerie du midi","46.8137971","4.8638521","France"
"FR0000007276","PrivateSiding","COOP. Agr de VERDUN CHALON-PIERRE","46.8171583","4.8639143","France"
"FR0000008479","PrivateSiding","PTT","46.8185656","4.8641716","France"
"FR0000009035","PrivateSiding","DESPLAT","46.8191713","4.8642715","France"
"FR0000007074","PrivateSiding","La Gauloise","43.9806797","4.8646459","France"
"FR9900001705","FreightTerminal","Ste-Colombe-les-Vienne-St-Romain-en-Gal","45.5274055","4.8646685","France"
"FR0000007992","PrivateSiding","LAURENT","46.8237165","4.8664803","France"
"FR0000009134","PrivateSiding","GIDI","46.8248954","4.8674652","France"
"FR0000015985","TechnicalChange","Fin de ligne","46.8249098","4.867477","France"
"FR0000005981","PrivateSiding","Administration militaire","48.678494","4.8674999","France"
"FR0000016121","TechnicalChange","Fin de ligne","43.4109067","4.8680113","France"
"FR0000002503","Station","Estressin","45.5402054","4.8681541","France"
"FR0000009221","DepotOrWorkshop","Faisceau Vienne Pair","45.5161043","4.8689106","France"
"FR0000015784","Junction","Accès à Faisceau Vienne Impair","45.5174849","4.8703511","France"
"FR0000004750","Station","Senozan","46.3914061","4.8706453","France"
"FR0000010228","Junction","Accès à Aproport","46.7708532","4.8708031","France"
"FR0000008911","DepotOrWorkshop","Faisceau Pair","44.8689254","4.8711055","France"
"FR0000009831","Junction","Accès à Faisceau Réception","44.8689449","4.871106","France"
"FR0000007743","DepotOrWorkshop","Faisceau Triage","44.8692846","4.8711763","France"
"FR0000009436","DepotOrWorkshop","Faisceau Impair","49.6987758","4.871213","France"
"FR0000008674","DepotOrWorkshop","Faisceau Impair","45.8173501","4.8712379","France"
"FR0000015605","Junction","Accès à Faisceau impair","43.9958595","4.8714484","France"
"FR0000008201","DepotOrWorkshop","Équipement","45.8175678","4.8715279","France"
"FR0000015062","Junction","Accès à Faisceau Pair","45.7928982","4.8716349","France"
"FR0000009526","DepotOrWorkshop","BONLIEU LGV","44.603538","4.8721534","France"
"FR0000002020","Junction","Bif 752330/886000","45.8179781","4.8721675","France"
"FR0000009645","DepotOrWorkshop","Faisceau Vienne Impair","45.5198064","4.8730021","France"
"FR0000007248","TrainTechnicalServices","ET Lyon-Mouche UPT Portes","44.8771725","4.8734571","France"
"FR0000000046","Junction","Bif 830000/830641","44.8784815","4.8734854","France"
"FR0000005253","DepotOrWorkshop","Faisceau Réception","44.8789758","4.8735567","France"
"FR0000006076","DepotOrWorkshop","Faisceau Relais Impair","44.8790625","4.8735696","France"
"FR9900001665","FreightTerminal","Portes","44.8796525","4.8736645","France"
"FR0000005316","DepotOrWorkshop","Faisceau Pair Sennecey","46.6446273","4.8738247","France"
"FR0000002269","Station","Montfavet","43.9325459","4.8739777","France"
"FR9900002147","Junction","Technical change","46.2720609","4.8741676","France"
"FR0000003727","Station","Vienne","45.5208517","4.8741737","France"
"FR0000002065","Junction","Bif 905000/905606","45.710554","4.8743344","France"
"FR0000003434","Station","Sennecey-le-Grand","46.6406516","4.8744698","France"
"FR0000004148","Station","Donchery","49.6983451","4.8748491","France"
"FR0000005605","DepotOrWorkshop","Faisceau pair","44.0032902","4.8749084","France"
"FR0000009512","DepotOrWorkshop","Faisceau impair","44.0042479","4.8752316","France"
"FR0000010041","Junction","Accès à Faisceau Impair","45.7101675","4.8752528","France"
"FR0000002965","Station","Sathonay-Rillieux","45.8200971","4.8756118","France"
"FR0000004403","Station","Sorgues-Châteauneuf-du-Pape","44.0053924","4.8757546","France"
"FR0000009273","DepotOrWorkshop","Faisceau impair","44.0060891","4.8762106","France"
"FR0000014482","Junction","Accès à Faisceau Impair","45.8206586","4.8766436","France"
"FR0000007780","DepotOrWorkshop","Faisceau Pair","46.7707949","4.8767549","France"
"FR0000002021","Junction","Bif 752330/887000","45.8209258","4.8769604","France"
"FR0000000785","Junction","Bif de Sathonay (Lyon)","45.8931734","4.877241","France"
"FR9900002145","Junction","Technical change","45.8211892","4.877532","France"
"FR0000015602","Junction","Accès à EMT Vénissieux UPT Vénissieux","45.7092591","4.8776121","France"
"FR0000005262","PrivateSiding","Administration de la Guerre","43.6042015","4.8780869","France"
"FR0000009306","PrivateSiding","Butagaz","46.6321495","4.880466","France"
"FR0000007262","DepotOrWorkshop","Faisceau Impair Fleurville","46.4484915","4.8822105","France"
"FR0000015976","TechnicalChange","Fin de ligne","45.707462","4.8824135","France"
"FR0000009583","PrivateSiding","Quai Militaire des Combeaux","44.9735056","4.8825377","France"
"FR9900001419","Station","Fleurville-Pont-de-Vaux","46.4510018","4.8840639","France"
"FR0000008764","DepotOrWorkshop","Faisceau Pair Fleurville","46.4529194","4.8851335","France"
"FR9900002146","Junction","Technical change","45.8267664","4.8879435","France"
"FR0000004742","Station","Vénissieux","45.7052089","4.8880448","France"
"FR0000004168","Station","Courthézon","44.0898878","4.8883134","France"
"FR9900003720","Junction","Accès à Faisceau Pair V4 à V34","44.9155517","4.8890186","France"
"FR0000007061","DepotOrWorkshop","Faisceau Pair V4 à V34","44.92231","4.8916411","France"
"FR9900004470","DepotOrWorkshop","Faisceau Impair","44.9231652","4.8919733","France"
"FR9900002148","Junction","Technical change","46.2683669","4.8920038","France"
"FR0000000616","Junction","Bif 777300/883000","46.2683578","4.8921024","France"
"FR0000004164","Station","Crépieux-la-Pape","45.8037688","4.8923684","France"
"FR0000004441","Station","Bédarrides","44.0408349","4.8929759","France"
"FR0000004079","Station","Pont-de-Veyle","46.267881","4.8930981","France"
"FR9900001121","TechnicalChange","Fin de ligne exploitée","46.7701982","4.8931321","France"
"FR0000007624","DepotOrWorkshop","Faisceau pair","46.2676035","4.8936827","France"
"FR0000007047","DepotOrWorkshop","Faisceau impair","46.267548","4.8937983","France"
"FR0000002508","Station","Valence","44.9279084","4.8938726","France"
"FR0000008434","PrivateSiding","Descours et Cabaud","43.4767305","4.8945833","France"
"FR0000000055","Junction","Bif de Cagnard (Valence)","44.9381755","4.8955171","France"
"FR9900003816","PrivateSiding","CNP","45.6882434","4.8965242","France"
"FR0000006640","PrivateSiding","GALVA RHONE","45.6884768","4.8979478","France"
"FR0000006438","PrivateSiding","Solmer","43.4686154","4.8992733","France"
"FR9900002038","FreightTerminal","Crissey","46.8413717","4.8997761","France"
"FR0000007986","PrivateSiding","ESEM ETIRAGE","45.6890388","4.9000571","France"
"FR9900002102","Junction","Technical change","44.9467589","4.9000595","France"
"FR0000006880","PrivateSiding","TRAFIC","45.6898557","4.9019895","France"
"FR0000009482","PrivateSiding","SOLUTRANS","45.690724","4.9036248","France"
"FR0000012290","Junction","Accès à Faisceau impair","46.2633363","4.903632","France"
"FR0000005934","DepotOrWorkshop","Faisceau Réception","45.6986624","4.9037675","France"
"FR0000001301","Junction","Bif 935901/935902","43.4745581","4.904807","France"
"FR9900001426","FreightTerminal","Fos-Coussoul","43.4745581","4.904807","France"
"FR0000007704","PrivateSiding","Embt Km 9,2","45.6981975","4.905045","France"
"FR0000011586","Junction","Accès à Faisceau pair","43.4746097","4.9052169","France"
"FR0000008415","DepotOrWorkshop","Faisceau Impair Tournus","46.5704359","4.905882","France"
"FR0000006156","DepotOrWorkshop","Faisceau Pair Tournus","46.5697931","4.9059654","France"
"FR0000003537","Station","Tournus","46.5666625","4.9063777","France"
"FR0000009059","ShuntingYard","Vénissieux","45.6968214","4.907526","France"
"FR0000003818","Station","Morières-lès-Avignon","43.9414541","4.9083294","France"
"FR0000009297","PrivateSiding","GIRAUD Logistique","45.6867101","4.9088881","France"
"FR0000005592","PrivateSiding","Transport CHAPUIS","45.686232","4.9095417","France"
"FR0000005260","PrivateSiding","GEFCO","45.6861705","4.9096369","France"
"FR9900002007","FreightTerminal","Vénissieux-Nord","45.6958734","4.909703","France"
"FR0000008097","PrivateSiding","APPIA","45.6857667","4.9101912","France"
"FR0000007883","PrivateSiding","Sté civile Immobilière du lot D 16 (SAMAT)","45.6856127","4.9104099","France"
"FR0000002224","Station","Les Échets","45.8745301","4.9107545","France"
"FR0000008476","PrivateSiding","Sté CIVIL IMMOBILIERE","45.6844147","4.9120464","France"
"FR9900003602","Junction","Technical change","43.4549904","4.9146899","France"
"FR0000000512","Junction","Bif 905000/905611","45.6943491","4.9148702","France"
"FR0000005264","PrivateSiding","CAUSSE WALLON","45.6820328","4.9153063","France"
"FR0000007776","PrivateSiding","SOLYVER","45.6819582","4.9154123","France"
"FR0000007916","PrivateSiding","Dépôts pétroliers de Fos","43.4452759","4.9164111","France"
"FR0000000092","Junction","Bif 020000/020606","48.6538458","4.9165373","France"
"FR0000008158","PrivateSiding","Primagaz","43.4539953","4.9167344","France"
"FR0000006780","PrivateSiding","DIP S.A","45.6813132","4.9167868","France"
"FR0000008846","PrivateSiding","DISFAT","45.6812961","4.9169358","France"
"FR0000005008","Station","Corgoloin","47.0841976","4.9171156","France"
"FR0000008586","PrivateSiding","Ets DIP LYON","45.6812959","4.9175169","France"
"FR0000009579","PrivateSiding","Esso","43.4531775","4.9179331","France"
"FR9900003243","FreightTerminal","Fos-Mériquette","43.4497844","4.9184116","France"
"FR0000009544","PrivateSiding","SCI LAFITTE GERANCE","45.6815629","4.918438","France"
"FR0000009267","PrivateSiding","SCI LYON EST","45.6818371","4.9189992","France"
"FR0000001874","Junction","Bif 204000/204606","49.7004746","4.9194121","France"
"FR0000002400","Station","Mionnay","45.8967334","4.9196903","France"
"FR0000006206","DepotOrWorkshop","CLAVEYSON BREN","45.1612159","4.9211475","France"
"FR0000005488","PrivateSiding","Ets LEROY","45.6833261","4.9215223","France"
"FR0000016446","Station","Entraigues-sur-la-Sorgue","44.0053757","4.9224281","France"
"FR0000008621","DepotOrWorkshop","Faisceau Pair","49.6979158","4.9235533","France"
"FR0000015005","Junction","Accès à Vénissieux","45.6906263","4.9241308","France"
"FR0000007322","PrivateSiding","Km 9.279","44.7470009","4.9245402","France"
"FR0000002455","Station","Velars","47.3266134","4.9275733","France"
"FR0000003142","Station","Sedan","49.6949418","4.9300875","France"
"FR0000006537","DepotOrWorkshop","Faisceau pair","43.477789","4.9310105","France"
"FR0000007539","PrivateSiding","Étoile","45.6868795","4.9333162","France"
"FR0000006457","DepotOrWorkshop","Faisceau Pair","48.6467102","4.9336046","France"
"FR0000008746","DepotOrWorkshop","Faisceau ZI CORBAS","45.6866348","4.9339279","France"
"FR0000015003","Junction","Accès à Vénissieux","45.6866033","4.9340234","France"
"FR0000014416","Junction","Accès à Faisceau Pair","49.6924135","4.9340903","France"
"FR0000004448","Station","St-Priest","45.6865608","4.9342258","France"
"FR0000008450","DepotOrWorkshop","Faisceau Chantier Equipement","48.6462791","4.9351073","France"
"FR0000003998","Station","St-Saturnin-d'Avignon","43.9531488","4.9351762","France"
"FR0000008909","PrivateSiding","SIFRACO","44.0103151","4.9353942","France"
"FR0000008372","DepotOrWorkshop","Faisceau  V3 à V27","48.6461712","4.9354751","France"
"FR0000006198","DepotOrWorkshop","Faisceau DSP","45.6854323","4.9370504","France"
"FR0000000941","Junction","Bif 007000/021300","48.8031561","4.9397906","France"
"FR0000011471","Junction","Accès à Faisceau Pair","48.6440855","4.9427804","France"
"FR0000009642","PrivateSiding","Km 26,8","45.9220676","4.94288","France"
"FR9900001990","FreightTerminal","Entressen","43.5887756","4.9445115","France"
"FR0000006136","PrivateSiding","Ateliers de Provence","43.5885526","4.9454365","France"
"FR9900003657","Junction","Technical change","48.0647628","4.946096","France"
"FR0000013050","Junction","Accès à Faisceau Impair Nuits-St-Georges","47.1194639","4.9470222","France"
"FR0000004304","Station","St-Dizier","48.6427093","4.9481397","France"
"FR0000004341","Station","St-André-de-Corcy","45.9260079","4.9486882","France"
"FR0000012488","Junction","Accès à Essences des Armées","48.0669726","4.9487706","France"
"FR0000000602","Junction","Bif 935306/935901 (Lavalduc Nord)","43.4801109","4.9499647","France"
"FR0000005305","ShuntingYard","Triage Miramas","43.5872491","4.9505444","France"
"FR0000014085","Junction","Accès à Faisceau  V3 à V27","48.6418347","4.9509135","France"
"FR0000001855","Junction","Bif 070000/021302","48.808976","4.9512705","France"
"FR0000000456","Junction","Bif 019000/020000","48.6414653","4.9518296","France"
"FR0000013052","Junction","Accès à Faisceau Impair Nuits-St-Georges","47.126678","4.9531642","France"
"FR0000000402","Junction","Bif 935000/935306 (Lavalduc Sud)","43.4738075","4.9534598","France"
"FR0000002426","Station","Miribel","45.8219947","4.9539312","France"
"FR0000009361","DepotOrWorkshop","MIRIBEL LGV","45.8585552","4.9540498","France"
"FR9900004657","Junction","Technical change","48.6406991","4.9545102","France"
"FR0000005449","PrivateSiding","Zone Industrielle","47.129514","4.9555182","France"
"FR0000007617","DepotOrWorkshop","Faisceau Impair Nuits-St-Georges","47.129514","4.9555182","France"
"FR0000003606","Station","Nuits-St-Georges","47.1305788","4.9563222","France"
"FR0000002478","Station","Gadagne","43.929775","4.9569238","France"
"FR9900002090","Junction","Technical change","43.4820853","4.9570306","France"
"FR0000007197","PrivateSiding","Essences des Armées","48.0733978","4.9573132","France"
"FR0000013155","Junction","Accès à Faisceau Pair Nuits-St-Georges","47.132605","4.9576877","France"
"FR0000001613","Junction","Bif 935000/935901","43.4838257","4.9581495","France"
"FR0000008817","PrivateSiding","Granulats-de-La Crau","43.542118","4.9583647","France"
"FR0000001797","Junction","Bif 088000/204000","49.6682205","4.9603575","France"
"FR0000005678","PrivateSiding","Blaise et Der","48.6389479","4.9606042","France"
"FR0000001480","Junction","Bif 020000/018000","48.6388942","4.9607884","France"
"FR0000008796","PrivateSiding","Km 28,8","45.9360493","4.9608383","France"
"FR0000007695","DepotOrWorkshop","Faisceau Pair Nuits-St-Georges","47.1403196","4.960963","France"
"FR0000007351","PrivateSiding","Etilam","48.645898","4.9613479","France"
"FR0000006470","PrivateSiding","Spad","44.0258306","4.9625303","France"
"FR0000000076","Junction","Bif 019000/021300","48.804162","4.976297","France"
"FR0000000142","Junction","Bif 019000/021301","48.804162","4.976297","France"
"FR0000009759","TechnicalChange","Fin de ligne exploitée","48.6475384","4.9633699","France"
"FR0000022991","Junction","Accès à Faisceau pair Revigny","48.804162","4.976297","France"
"FR9900003792","TechnicalChange","Fin de ligne exploitée","48.804162","4.976297","France"
"FR0000000306","Junction","Bif 752352/912000","44.7407981","4.9634494","France"
"FR0000009629","PrivateSiding","Rossi","44.0263821","4.9635007","France"
"FR9900003758","TechnicalChange","Fin de ligne exploitée","48.6374689","4.9635952","France"
"FR0000009445","DepotOrWorkshop","Faisceau Relais","43.5825169","4.9666595","France"
"FR0000001166","Junction","Bif de la LGV (St-Marcel)","44.9847922","4.9701523","France"
"FR0000006094","PrivateSiding","Kerneos","43.4346981","4.9711137","France"
"FR0000002694","Station","Vougeot-Gilly-lès-Cîteaux","47.1755525","4.9715493","France"
"FR0000009661","DepotOrWorkshop","Faisceau impair Revigny","48.8195773","4.9725984","France"
"FR0000008173","PrivateSiding","EDF (km 15,1)","45.6762618","4.9727597","France"
"FR0000008932","DepotOrWorkshop","Faisceau pair Revigny","48.8196812","4.9728643","France"
"FR0000002918","Station","Rassuen","43.4966832","4.9729229","France"
"FR0000002593","Station","Fos-sur-Mer","43.4280996","4.9747412","France"
"FR0000002058","Junction","Bif de Valence","45.0098199","4.9768944","France"
"FR0000004649","Station","St-Maurice-de-Beynost","45.8273562","4.9769383","France"
"FR0000003234","Station","St-Marcel-en-Dombes","45.95066","4.9779765","France"
"FR0000000344","Junction","Bif 752000/908320","44.9935272","4.9784048","France"
"FR0000003950","Station","Valence-TGV","44.9913362","4.9787344","France"
"FR9900001319","FreightTerminal","Bricon","48.0872967","4.9790611","France"
"FR0000008216","PrivateSiding","Coopérative Fruitière","44.9938125","4.9796323","France"
"FR0000001193","Junction","Bif 001000/840000","48.0874139","4.9796391","France"
"FR0000004636","Station","Istres","43.5153423","4.9802787","France"
"FR0000005290","PrivateSiding","Km 18.8","45.8281502","4.9805839","France"
"FR0000014831","Junction","Accès à Faisceau pair Revigny","48.8225893","4.9815636","France"
"FR9900003531","PrivateSiding","Providence Agricole","48.8230423","4.9827534","France"
"FR0000008145","PrivateSiding","Agrodis","44.997496","4.9834944","France"
"FR0000015807","Junction","Accès à Faisceau impair Revigny","48.8232903","4.983495","France"
"FR0000008575","PrivateSiding","Tréfilunion","48.6321122","4.9840977","France"
"FR0000004174","Station","Port-de-Bouc","43.4072197","4.9847136","France"
"FR0000000131","Junction","Bif 070000/019000","48.8237673","4.9851082","France"
"FR0000000868","Junction","Bif 830000/925000","43.5813746","4.9855296","France"
"FR0000001415","Junction","Bif 752000/752352","44.7354824","4.9856001","France"
"FR0000006713","DepotOrWorkshop","Base Maintenance d'Eurre","44.7354824","4.9856001","France"
"FR0000003856","Station","Revigny","48.8238941","4.9856165","France"
"FR9900001904","FreightTerminal","Bazeilles","49.6719546","4.986191","France"
"FR0000008054","PrivateSiding","SMEA","43.5884415","4.9866928","France"
"FR0000006835","PrivateSiding","ERGM","43.5858419","4.9868846","France"
"FR0000001073","Junction","Bif 088000/225000","49.656785","4.9868963","France"
"FR0000006991","DepotOrWorkshop","Faisceau Parc BAL","43.5850497","4.9869899","France"
"FR0000000568","Junction","Bif 935000/935111","43.4070684","4.9873668","France"
"FR0000007556","TrainTechnicalServices","UP Miramas (Technicentre PACA)","43.5806313","4.9881877","France"
"FR9900001985","FreightTerminal","Alixan-Châteauneuf-d'Isère","45.002154","4.9883588","France"
"FR0000005572","DepotOrWorkshop","Faisceau Pair","48.0890952","4.9886769","France"
"FR0000007053","DepotOrWorkshop","Faisceau impair","46.2273816","4.9904606","France"
"FR0000005622","DepotOrWorkshop","CAVAILLON LGV","43.8588196","4.9911173","France"
"FR0000014359","Junction","Accès à Tréfilunion","48.6286684","4.9918436","France"
"FR0000002630","Station","Vonnas","46.2272738","4.9918771","France"
"FR0000007719","DepotOrWorkshop","Faisceau impair","44.0371569","4.9919575","France"
"FR0000000684","Junction","Bif 908000/908320","45.006699","4.9931401","France"
"FR0000013188","Junction","Accès à Faisceau impair","44.0373198","4.9940315","France"
"FR0000007067","DepotOrWorkshop","Faisceau pair","43.5808725","4.9944636","France"
"FR0000009902","Junction","Accès à Triage Miramas","43.5811642","4.994741","France"
"FR0000016455","Station","Monteux","44.0373841","4.9948815","France"
"FR0000002783","Station","Le Thor","43.9264197","4.9962983","France"
"FR0000005361","DepotOrWorkshop","LAPEYROUSE MORNAY","45.3382616","4.9963272","France"
"FR0000013189","Junction","Accès à Faisceau impair","44.037462","4.9965141","France"
"FR0000008815","DepotOrWorkshop","Faisceau 3","47.2263067","4.9984056","France"
"FR0000004127","Station","Gevrey-Chambertin","47.2273233","4.9989328","France"
"FR0000003484","Station","Miramas","43.5809444","4.9995529","France"
"FR0000001815","Junction","Bif 830000/925000/935000","43.5809438","4.9995777","France"
"FR0000001303","Junction","Bif de Lyon (Dijon)","47.2291287","4.9999005","France"
"FR0000016536","TechnicalChange","Bif 830361/935000","43.5715898","5.0012947","France"
"FR0000012967","Junction","Accès à UP Miramas (Technicentre PACA)","43.5809213","5.0013161","France"
"FR0000000466","Junction","Bif 830000/830900","47.2325021","5.0016992","France"
"FR0000008395","PrivateSiding","Km 17,5","45.6696206","5.00241","France"
"FR0000009829","Junction","Accès à Gevrey-Chambertin","47.232845","5.0027404","France"
"FR0000001108","Junction","Bif 830000/830361","43.5806252","5.0048672","France"
"FR0000007297","PrivateSiding","Unilin","49.6726982","5.0057959","France"
"FR0000008255","PrivateSiding","GIE Lavéra Fer","43.3953128","5.0072462","France"
"FR0000004195","Station","Beynost","45.8339155","5.0072622","France"
"FR0000009454","DepotOrWorkshop","UPIE LGV","44.8087875","5.0073654","France"
"FR0000016218","TechnicalChange","Fin de ligne","43.3953375","5.007444","France"
"FR0000008728","PrivateSiding","SMCM","48.6171652","5.0094719","France"
"FR9900001901","FreightTerminal","Ancerville-Guë","48.6165501","5.010587","France"
"FR9900003807","DepotOrWorkshop","Faisceau pair 6 à 10","44.7313539","5.0127857","France"
"FR9900003530","DepotOrWorkshop","Tiroir","47.2450871","5.0133436","France"
"FR0000006858","DepotOrWorkshop","Faisceau 18","47.3231672","5.014273","France"
"FR0000011323","Junction","Accès à Faisceau Dépôt","47.2455341","5.0143921","France"
"FR0000002290","Station","Crest","44.7300894","5.0159646","France"
"FR0000008718","DepotOrWorkshop","Faisceau 16","47.3229116","5.0161261","France"
"FR9900002063","Junction","Technical change","45.6664685","5.0164643","France"
"FR0000009828","Junction","Accès à Gevrey-Chambertin","47.2548498","5.0165428","France"
"FR9900003545","DepotOrWorkshop","Faisceau 3","47.3228466","5.0172975","France"
"FR9900002700","Junction","Accès à Faisceau pair 6 à 10","44.7286245","5.0173126","France"
"FR0000006353","DepotOrWorkshop","Faisceau Dépôt","47.2527947","5.0174674","France"
"FR0000013272","Junction","Accès à Faisceau Plateforme Multimodale","47.2525657","5.0176331","France"
"FR9900003469","Junction","Accès à Faisceau 3","47.3228322","5.019326","France"
"FR0000003026","Station","Croix-Sainte","43.4089135","5.0196949","France"
"FR0000005493","DepotOrWorkshop","Faisceau 10/12","47.3228572","5.0197268","France"
"FR9900003467","Junction","Accès à Faisceau 3","47.3229009","5.02026","France"
"FR0000007778","DepotOrWorkshop","Faisceau Plateforme Multimodale","47.2629496","5.0212748","France"
"FR9900003470","Junction","Accès à Faisceau 3","47.3232691","5.0223161","France"
"FR0000008696","TrainTechnicalServices","Technicentre Bourgogne-Franche-Comté","47.3232749","5.0223542","France"
"FR9900003549","DepotOrWorkshop","Faisceau V23 a V31 Lavage","47.3232749","5.0223542","France"
"FR9900003552","DepotOrWorkshop","Faisceau V5 a V21","47.3233408","5.0227225","France"
"FR9900003468","Junction","Accès à Faisceau 3","47.3233638","5.0229286","France"
"FR9900003310","Junction","Accès à Faisceau V5 a V21","47.32339","5.0231634","France"
"FR0000006678","PrivateSiding","Naphtachimie","43.3781908","5.0243716","France"
"FR0000015821","Junction","Accès à Faisceau Perrigny La Noue V19 à V45","47.2824868","5.0244729","France"
"FR0000005252","ShuntingYard","Gevrey-Chambertin","47.2657719","5.0246432","France"
"FR0000000374","Junction","Bif 935000/935606","43.379962","5.0249878","France"
"FR0000013577","Junction","Accès à BP","43.3881348","5.0250614","France"
"FR0000012351","Junction","Accès à Faisceau impair","43.3868101","5.0251151","France"
"FR0000005043","Station","Martigues","43.3928972","5.0254455","France"
"FR0000007096","DepotOrWorkshop","Faisceau impair","43.3929506","5.025453","France"
"FR0000007990","PrivateSiding","BP","43.3946237","5.0257941","France"
"FR0000004898","Station","Dijon-Ville","47.3231657","5.0266092","France"
"FR9900003360","Junction","Accès à Faisceau Perrigny 10/18","47.2934315","5.027296","France"
"FR0000010673","Junction","Accès à UPM Perrigny (Technicentre BFC)","47.2926203","5.02731","France"
"FR0000001762","Junction","Jct 830900/860000","47.2945976","5.0276529","France"
"FR0000001628","Junction","Bif 830900/861300","47.2947627","5.0276714","France"
"FR0000000756","Junction","Bif 860000/861300","47.294709","5.0277021","France"
"FR0000023023","DepotOrWorkshop","Faisceau Perrigny 4/9 - 4 Tiroir","47.2935102","5.0277111","France"
"FR0000001354","Junction","Bif 860000/861301","47.2905164","5.0277169","France"
"FR0000000148","Junction","Bif 830000/861300","47.2951991","5.0278677","France"
"FR0000005296","DepotOrWorkshop","Faisceau Perrigny 4/9 - 10/18 V4 à V9 et V10 à V18","47.2940413","5.0279848","France"
"FR0000001518","Junction","Jct 830000/830900","47.293909","5.0279871","France"
"FR0000000184","Junction","Bif Chagny (Dijon)","47.2956346","5.0279949","France"
"FR9900003551","DepotOrWorkshop","Faisceau Perrigny 10/18","47.293446","5.0280484","France"
"FR0000005632","DepotOrWorkshop","Faisceau Perrigny Est V46 à V52","47.2961083","5.0280722","France"
"FR9900003358","Junction","Accès à Faisceau Perrigny 10/18","47.2933137","5.0280833","France"
"FR0000004185","Station","Villars-les-Dombes","46.0043033","5.0281473","France"
"FR0000008052","PrivateSiding","ZI Chenove","47.2883697","5.0284675","France"
"FR0000007064","DepotOrWorkshop","Parc Divisionnaire VB","47.2882727","5.0285148","France"
"FR0000000137","Junction","Bif 860000/860608/860606","47.2883041","5.0285575","France"
"FR0000009444","PrivateSiding","Ferren-Fers","44.0367527","5.0294055","France"
"FR0000001838","Junction","Bif 830000/862310","47.2887295","5.0297549","France"
"FR0000006451","DepotOrWorkshop","Faisceau  impair 3 et 5","46.0056292","5.0298945","France"
"FR0000009514","DepotOrWorkshop","Faisceau Perrigny Embranchements","47.3043026","5.0302458","France"
"FR0000000087","Junction","Jct 830000/830900","47.3043246","5.0304029","France"
"FR0000022998","DepotOrWorkshop","Faisceau atelier TER","47.3033234","5.0304528","France"
"FR9900003068","DepotOrWorkshop","Faisceau EST","47.2918387","5.0304685","France"
"FR0000000073","Junction","Jct 830000/830900/860000","47.3049406","5.0304909","France"
"FR9900003809","DepotOrWorkshop","V.S Machines","47.3216586","5.0304992","France"
"FR0000005419","DepotOrWorkshop","Faisceau 6","47.3216326","5.0305266","France"
"FR9900003359","Junction","Accès à Faisceau Perrigny 10/18","47.2856977","5.030583","France"
"FR0000005858","TrainTechnicalServices","UPM Perrigny (Technicentre BFC)","47.3055702","5.0306421","France"
"FR0000001070","Junction","Jct 830900/863300","47.2738792","5.0307241","France"
"FR9900004060","Junction","Accès à UPM Perrigny (Technicentre BFC)","47.3061722","5.0307889","France"
"FR9900003356","Junction","Accès à Faisceau Perrigny 10/18","47.285748","5.0310122","France"
"FR0000006629","DepotOrWorkshop","Faisceau 4","47.3209983","5.0310382","France"
"FR9900001396","FreightTerminal","Dijon-Porte-d'Ouche-Perrigny","47.3085786","5.0311454","France"
"FR9900003480","Junction","Accès à Faisceau Perrigny 4/9 - 10/18 V4 à V9 et V10 à V18","47.2850215","5.0313148","France"
"FR0000001463","Junction","Fin de ligne exploitée","47.3205245","5.0313462","France"
"FR0000001411","Junction","Bif 850000/860000","47.3084316","5.0314483","France"
"FR0000000209","Junction","Jct 830900/850000","47.3089212","5.0314824","France"
"FR9900003547","DepotOrWorkshop","Faisceau V.3 Belfort","47.3063025","5.031488","France"
"FR0000001917","Junction","Bif 830900/863300","47.2746222","5.031519","France"
"FR9900003460","Junction","Accès à Faisceau V.3 Belfort","47.3057363","5.0316425","France"
"FR9900001149","TrainTechnicalServices","ET Dijon UPT Dijon-Ville","47.3195683","5.0317362","France"
"FR9900003970","DepotOrWorkshop","Faisceau V41 a V55","47.3195683","5.0317362","France"
"FR0000023026","Junction","Accès à Faisceau Perrigny 4/9 - 4 Tiroir","47.2847181","5.0317426","France"
"FR0000007879","DepotOrWorkshop","Faisceau 39","47.3181972","5.0318","France"
"FR0000006714","PrivateSiding","JAMS.Sud","44.0377793","5.0318004","France"
"FR0000009670","DepotOrWorkshop","Faisceau Perrigny La Noue V19 à V45","47.2843002","5.0323127","France"
"FR9900002952","Junction","Accès à Faisceau Perrigny 4/9 - 10/18 V4 à V9 et V10 à V18","47.2843002","5.0323127","France"
"FR0000001274","Junction","Bif 830000/830900","47.3134178","5.0323254","France"
"FR0000007287","PrivateSiding","Zone Industrielle","44.0380541","5.0324459","France"
"FR0000001625","Junction","Bif 861300/861301","47.2971878","5.0325361","France"
"FR0000000913","Junction","Bif 860000/860621","47.2833935","5.0331328","France"
"FR0000001997","Junction","Jct 830900/860000","47.2831521","5.0334734","France"
"FR0000000606","Junction","Fin de ligne exploitée","47.2820147","5.0346513","France"
"FR0000006864","PrivateSiding","Zone Industrielle Dijon Sud","47.2816153","5.0354481","France"
"FR0000006882","DepotOrWorkshop","Faisceau pair","43.9186138","5.0393476","France"
"FR0000012603","Junction","Accès à Zone Industrielle","44.0410339","5.0394372","France"
"FR0000000621","Junction","Bif 862300/862310","47.2940693","5.0407169","France"
"FR0000004549","Station","St-Chamas","43.5502452","5.0409067","France"
"FR0000005420","PrivateSiding","Isoroy","48.593914","5.0410091","France"
"FR0000006297","DepotOrWorkshop","Faisceau Impair","48.593914","5.0410091","France"
"FR0000009789","TechnicalChange","Fin de ligne exploitée","44.0537017","5.0411759","France"
"FR0000001911","Junction","Bif 862300/861300","47.293914","5.0429395","France"
"FR0000002111","Junction","Bif 862300/862301","47.2939065","5.0430253","France"
"FR0000009176","DepotOrWorkshop","Faisceau impair","43.8367059","5.0432266","France"
"FR0000008427","DepotOrWorkshop","Faisceau pair","43.8366868","5.0432335","France"
"FR0000016449","Station","Carpentras","44.0501841","5.0436873","France"
"FR0000003254","Station","Cavaillon","43.8347125","5.0439923","France"
"FR0000011525","Junction","Accès à Faisceau pair","44.0488175","5.0441774","France"
"FR0000000955","Junction","Bif 860000/863300","47.2773611","5.0442988","France"
"FR0000006493","DepotOrWorkshop","Faisceau pair","44.0443419","5.0446299","France"
"FR0000001823","Junction","Bif 922000/925000","43.8327312","5.0448749","France"
"FR0000005569","PrivateSiding","SIFRACO","44.0463951","5.0449917","France"
"FR0000002265","Station","Orgon","43.7858776","5.0455654","France"
"FR9900003855","Junction","Technical change","43.8302194","5.0456372","France"
"FR0000015157","Junction","Accès à Faisceau impair","43.828476","5.0457344","France"
"FR9900003669","Junction","Technical change","43.8298427","5.0458394","France"
"FR0000001310","Junction","Bif 862310/862301","47.2939821","5.0461327","France"
"FR0000009685","DepotOrWorkshop","Remisage Marche d interet National","43.8267253","5.0462594","France"
"FR0000004393","Station","Mézériat","46.2350455","5.0466638","France"
"FR9900001994","FreightTerminal","Cavaillon (MIN)","43.8253788","5.0466799","France"
"FR0000000167","Junction","Bif 850000/862310","47.2939147","5.0471556","France"
"FR0000005415","DepotOrWorkshop","Faisceau impair","43.917308","5.0471916","France"
"FR0000007833","PrivateSiding","OMYA","43.783019","5.0474398","France"
"FR0000004632","Station","L'Isle-Fontaine-de-Vaucluse","43.9172589","5.047468","France"
"FR0000000954","Junction","Bif 849000/850000","47.2938061","5.047596","France"
"FR0000012043","Junction","Accès à Zone Industrielle Dijon Sud","47.2759212","5.0476584","France"
"FR0000000987","Junction","Bif 860000/860611","47.2759115","5.0476807","France"
"FR0000006871","PrivateSiding","Aérodrome de Semoutiers","48.1026937","5.0486451","France"
"FR0000003878","Station","Romans-Bourg-de-Péage","45.0490096","5.0496252","France"
"FR0000000511","Junction","Bif 860611/860614/860617","47.2810105","5.0507716","France"
"FR0000005534","DepotOrWorkshop","Faisceau Montluel Pair","45.8444729","5.050794","France"
"FR0000006524","DepotOrWorkshop","Faisceau Impair","45.0488777","5.0512952","France"
"FR0000004194","Station","La Couronne-Carro","43.3399805","5.0519207","France"
"FR0000001546","Junction","Bif 860611/860613","47.2793992","5.0523238","France"
"FR0000000115","Junction","Bif Rac de Cheval Blanc","43.7936458","5.0534705","France"
"FR0000001287","Junction","Bif de Cheval Blanc","43.8011723","5.0539516","France"
"FR0000005565","DepotOrWorkshop","Faisceau Cheval-Blanc Base Maintenance LGV","43.8003999","5.0542513","France"
"FR0000000339","Junction","Bif 752358/923000","43.7994513","5.0544736","France"
"FR0000000406","Junction","Bif 849000/862300","47.2956343","5.0546055","France"
"FR0000009462","DepotOrWorkshop","Base Travaux","43.7985563","5.0547549","France"
"FR9900001452","FreightTerminal","Heyrieux","45.6577767","5.0551734","France"
"FR0000002984","Station","Dijon-Porte-Neuve","47.3228026","5.0552498","France"
"FR0000009673","PrivateSiding","Km 21,9","45.6574979","5.056435","France"
"FR0000011567","Junction","Accès à Faisceau Impair","45.0484553","5.0566952","France"
"FR0000008125","DepotOrWorkshop","Faisceau Pair V6 à V8","47.3282579","5.056786","France"
"FR0000001016","Junction","Bif de Marseille","45.6574189","5.0567899","France"
"FR0000002743","Station","Montluel","45.8477135","5.0576562","France"
"FR0000001745","Junction","Bif 908000/908606","45.0483325","5.0584724","France"
"FR0000006771","DepotOrWorkshop","Faisceau Impair Dijon-Porte-Neuve","47.3362378","5.0588215","France"
"FR0000023007","PrivateSiding","ZI de DIJON NORD","47.3372948","5.0590316","France"
"FR9900003069","PrivateSiding","Ville de DIJON","47.3372948","5.0590316","France"
"FR0000014112","Junction","Accès à SOLLAC","49.6069027","5.0600095","France"
"FR0000008792","DepotOrWorkshop","Faisceau Garage","45.0482616","5.0600743","France"
"FR0000011916","Junction","Accès à Faisceau Impair Dijon-Porte-Neuve","47.3453421","5.0607172","France"
"FR0000006436","DepotOrWorkshop","Faisceau Voie A","45.8485776","5.0612416","France"
"FR0000009631","DepotOrWorkshop","Faisceau Montluel Impair","45.848636","5.0617371","France"
"FR9900002186","Junction","Technical change","47.3548152","5.0626909","France"
"FR0000008390","PrivateSiding","SOLLAC","49.6041762","5.0684168","France"
"FR0000008737","PrivateSiding","EMC2","48.1120006","5.0685718","France"
"FR9900001889","FreightTerminal","Villiers-le-Sec","48.112024","5.0686583","France"
"FR9900001611","FreightTerminal","Mouzon","49.6039578","5.0690838","France"
"FR0000016656","TechnicalChange","Fin de ligne exploitée","49.6035908","5.07005","France"
"FR0000006211","DepotOrWorkshop","Faisceau pair","43.7422214","5.0725348","France"
"FR0000004588","Station","Ouges","47.2558343","5.07284","France"
"FR0000000777","Junction","Bif de Grenoble","45.6597915","5.0731666","France"
"FR0000004741","Station","Sénas","43.7408948","5.0732644","France"
"FR0000004318","Station","Marlieux-Châtillon","46.063988","5.0733265","France"
"FR0000011134","Junction","Accès à Faisceau pair","43.7386632","5.0746263","France"
"FR0000002632","Station","Lyon-St-Exupéry-TGV","45.721088","5.0759692","France"
"FR0000004059","FreightTerminal","Bayard","48.5515343","5.0761201","France"
"FR0000006781","PrivateSiding","Pont à Mousson","48.5499287","5.0785691","France"
"FR0000004567","Station","Ruffey","47.370449","5.0791217","France"
"FR0000009003","PrivateSiding","Cadac","48.1141115","5.0827648","France"
"FR0000002007","Junction","Bif 001000/020311","48.1141249","5.0834685","France"
"FR0000000108","Junction","Bif de Lyon (Grenay)","45.6397667","5.0857844","France"
"FR0000003652","Station","Salon","43.6390909","5.0884428","France"
"FR0000000495","Junction","Bif 020000/020311","48.1234736","5.0888859","France"
"FR0000000208","Junction","Bif 925000/924000","43.6353167","5.0899063","France"
"FR0000008865","PrivateSiding","COLAS RAIL","45.6610307","5.0907839","France"
"FR0000008649","DepotOrWorkshop","Faisceau impair","43.6974132","5.0911992","France"
"FR0000004627","Station","Lamanon","43.6999669","5.0914824","France"
"FR0000008985","PrivateSiding","ATO (km 27,9)","45.8486525","5.0928453","France"
"FR0000005729","PrivateSiding","Km B 4.467","45.6680384","5.0943632","France"
"FR0000009556","PrivateSiding","Km B 4.030","45.6680384","5.0943632","France"
"FR0000000998","Junction","Bif 905621/905626","45.6394383","5.0947469","France"
"FR0000007742","DepotOrWorkshop","Faisceau Pair","47.2335174","5.0951357","France"
"FR0000006657","DepotOrWorkshop","Faisceau d'échange","45.668167","5.0955745","France"
"FR0000007111","PrivateSiding","KUEHNE NAGEL","45.6682481","5.0959526","France"
"FR0000007950","DepotOrWorkshop","SENAS LGV","43.7633962","5.096403","France"
"FR0000008200","DepotOrWorkshop","Faisceau impair","45.6387773","5.0969948","France"
"FR0000001184","Junction","Bif 905000/905621","45.6386434","5.0976966","France"
"FR0000008364","PrivateSiding","ITE n°1","45.6439853","5.0983227","France"
"FR0000001781","Junction","Bif de Satolas","45.6384552","5.0985099","France"
"FR0000009456","PrivateSiding","ITE n°3","45.644321","5.0989053","France"
"FR0000011748","Junction","Accès à Faisceau d'échange","45.672891","5.0998686","France"
"FR0000004961","Station","St-Quentin-Fallavier","45.6382254","5.0999536","France"
"FR0000006815","PrivateSiding","Km B 4.745","45.6731853","5.1000801","France"
"FR0000009326","PrivateSiding","Km B 4.776","45.6734893","5.1002873","France"
"FR0000015900","TechnicalChange","Fin de ligne","45.6736746","5.1004551","France"
"FR0000006450","PrivateSiding","ITE n°5","45.6456021","5.1011636","France"
"FR0000006260","PrivateSiding","ITE n°7","45.6463838","5.1025425","France"
"FR0000005968","DepotOrWorkshop","Faisceau Impair Voies de Garage","48.1126066","5.1027139","France"
"FR0000006301","PrivateSiding","ITE n°9","45.6466339","5.1029865","France"
"FR0000005247","DepotOrWorkshop","EIV de Saulon-la-Chapelle","47.2255997","5.1030299","France"
"FR0000007386","PrivateSiding","ITE n°11","45.6480529","5.1042396","France"
"FR0000004945","Station","Saulon","47.2241198","5.1045117","France"
"FR9900004624","Junction","Accès à Faisceau Pair","47.2227029","5.1059212","France"
"FR0000009821","Junction","Accès à EIV de Saulon-la-Chapelle","47.2222912","5.1063292","France"
"FR0000005284","DepotOrWorkshop","Faisceau garage V3","47.2223071","5.1063888","France"
"FR0000013852","Junction","Accès à Faisceau impair","45.6376844","5.1075648","France"
"FR0000009168","DepotOrWorkshop","notAvailableName","48.5284333","5.1086427","France"
"FR0000009619","DepotOrWorkshop","Faisceau Pair","48.5284333","5.1086427","France"
"FR0000000043","Junction","Bif 001000/020000","48.1118931","5.1098845","France"
"FR0000003720","Station","Sausset-les-Pins","43.3330025","5.1100837","France"
"FR0000006483","PrivateSiding","ITE n°32","45.6418192","5.1101775","France"
"FR0000004654","Station","Bretigny-Norges","47.3898106","5.1101816","France"
"FR0000003663","Station","Neuilly-lès-Dijon","47.2816739","5.1109737","France"
"FR0000003400","Station","Chevillon","48.5246669","5.1114322","France"
"FR0000009575","PrivateSiding","ITE n°59","45.6409257","5.1117473","France"
"FR0000009535","PrivateSiding","ITE n°56","45.6408899","5.1120932","France"
"FR0000007646","PrivateSiding","Zone Industrielle","48.1116549","5.1122338","France"
"FR0000009872","Junction","Accès à Faisceau garage V3","47.216335","5.1124156","France"
"FR0000005550","PrivateSiding","ITE n°16","45.6493837","5.1139147","France"
"FR0000007587","PrivateSiding","ITE n°34","45.6421283","5.1141276","France"
"FR0000006778","PrivateSiding","ITE n°14","45.648651","5.1163628","France"
"FR0000007575","DepotOrWorkshop","Zone des Arrivaux  Voies E D et C","45.6481991","5.1174755","France"
"FR0000007871","PrivateSiding","ITE n°18","45.6479594","5.1178448","France"
"FR0000009328","PrivateSiding","ITE n°22","45.6468898","5.1194706","France"
"FR0000005301","PrivateSiding","ITE n°36","45.6436575","5.1218384","France"
"FR0000004069","Station","Vraincourt-Viéville","48.236342","5.1238837","France"
"FR0000003160","Station","Polliat","46.2446388","5.1239331","France"
"FR0000002992","Station","Vignory","48.2702593","5.1242329","France"
"FR0000004392","Station","La Valbonne","45.8491706","5.125121","France"
"FR0000001975","Junction","Bif 849000/838000","47.5177185","5.1272588","France"
"FR0000015373","Junction","Accès à Faisceau Is-sur-Tille V1 Impair","47.5183286","5.1277554","France"
"FR0000012820","Junction","Accès à Faisceau 20 garage Is-sur-Tille","47.518344","5.1277689","France"
"FR9900003296","Junction","Technical change","47.5184149","5.1277739","France"
"FR0000009093","DepotOrWorkshop","Faisceau Pair V4 à 16","48.110104","5.1279922","France"
"FR0000004337","Station","St-Paul-de-Varax","46.100113","5.1281239","France"
"FR0000004338","Station","St-Julien-Clénay","47.4057123","5.1281629","France"
"FR0000006622","DepotOrWorkshop","Faisceau voie 3","47.4068776","5.1281895","France"
"FR0000014021","Junction","Accès à Faisceau pair","48.1945512","5.1291334","France"
"FR0000007978","DepotOrWorkshop","Faisceau Impair","48.1099255","5.1296555","France"
"FR0000003925","Station","Is-sur-Tille","47.5203357","5.129677","France"
"FR0000006758","PrivateSiding","SEPAC","48.1950678","5.1297032","France"
"FR0000004098","Station","Gemeaux","47.4781528","5.1297237","France"
"FR0000006284","DepotOrWorkshop","Faisceau Pair","45.8509865","5.1304344","France"
"FR0000001798","Junction","Bif 020000/026000","48.1959114","5.1306865","France"
"FR0000006059","PrivateSiding","ATO (km 31,1)","45.8522915","5.1327184","France"
"FR0000009335","DepotOrWorkshop","Faisceau Is-sur-Tille V1 Impair","47.5229246","5.1335374","France"
"FR0000000068","Junction","Bif 838000/843000","47.5230933","5.1338257","France"
"FR0000008252","DepotOrWorkshop","Faisceau Is-sur-Tille V3 à V9","47.5230933","5.1338257","France"
"FR0000004775","Station","Bologne","48.1984505","5.1339073","France"
"FR0000005013","Station","Chaumont","48.1093975","5.1346133","France"
"FR0000002209","Station","Longecourt","47.1937694","5.1347414","France"
"FR0000008321","DepotOrWorkshop","Faisceau pair","48.2009201","5.1363798","France"
"FR0000007450","DepotOrWorkshop","Faisceau 20 garage Is-sur-Tille","47.5246735","5.1383668","France"
"FR9900000241","Junction","Accès à Faisceau Pair V4 à 16","48.1092961","5.1404048","France"
"FR0000003809","FreightTerminal","Gudmont","48.3381769","5.140998","France"
"FR0000010836","Junction","Accès à Faisceau Impair","48.3391624","5.1411241","France"
"FR0000005984","DepotOrWorkshop","Faisceau Impair","48.3397049","5.1411601","France"
"FR9900002006","FreightTerminal","Chevigny-St-Sauveur","47.2730472","5.1416571","France"
"FR0000003771","Station","Froncles","48.296424","5.1417361","France"
"FR0000005856","DepotOrWorkshop","Faisceau pair  Is-sur-Tille","47.5259491","5.1428657","France"
"FR0000012744","Junction","Accès à Faisceau Impair","48.4436597","5.1433344","France"
"FR0000002959","Station","Joinville","48.4445193","5.1437704","France"
"FR0000001986","Junction","Bif 020000/025300","48.4222075","5.1453336","France"
"FR0000009748","TechnicalChange","Fin de ligne exploitée","46.869602","5.1474115","France"
"FR0000007391","DepotOrWorkshop","Faisceau Impair","48.448543","5.1477203","France"
"FR0000005119","Station","Donjeux","48.3658982","5.1483934","France"
"FR0000013922","Junction","Accès à Faisceau Is-sur-Tille V3 à V9","47.5276646","5.1489299","France"
"FR0000009129","DepotOrWorkshop","Faisceau Impair Seurre","46.9923594","5.1501014","France"
"FR0000013598","Junction","Accès à Faisceau Pair Seurre","46.9924848","5.1501375","France"
"FR0000003699","Station","La Verpillière","45.6274848","5.1507899","France"
"FR0000008005","DepotOrWorkshop","Faisceau Pair Seurre","46.9954999","5.1510127","France"
"FR0000004074","Station","Seurre","46.9963655","5.1512527","France"
"FR0000004202","Station","Carry-le-Rouet","43.3366905","5.1536028","France"
"FR0000003632","Station","Aiserey","47.1705174","5.1582342","France"
"FR0000005732","DepotOrWorkshop","Faisceau Pair","46.8730324","5.159565","France"
"FR0000000580","Junction","Bif 860000/866300","46.8615715","5.1600944","France"
"FR9900003782","TechnicalChange","Fin de ligne exploitée","46.869355","5.1601844","France"
"FR0000001735","Junction","Bif 865000/866300","46.8602757","5.160273","France"
"FR0000008024","DepotOrWorkshop","Faisceau Bar-le-Duc impair","48.7775859","5.1629387","France"
"FR0000006720","DepotOrWorkshop","Faisceau Bar-le-Duc pair","48.7773172","5.1632866","France"
"FR0000004796","Station","Bar-le-Duc","48.7736747","5.167191","France"
"FR0000000939","Junction","Bif 204000/214000","49.6290242","5.167576","France"
"FR0000004658","Station","Servas-Lent","46.1306984","5.1679923","France"
"FR0000004645","Station","Carignan","49.6284969","5.1684295","France"
"FR0000013627","Junction","Accès à Faisceau Bar-le-Duc impair","48.7715904","5.1693149","France"
"FR0000006152","DepotOrWorkshop","Faisceau Impair","49.6279414","5.1693206","France"
"FR0000007206","DepotOrWorkshop","Faisceau impair v19","48.7707485","5.1702573","France"
"FR0000011053","Junction","Accès à Faisceau Impair","49.6251774","5.173759","France"
"FR0000005892","PrivateSiding","Embt de la sous station","43.5036404","5.1750329","France"
"FR0000008552","DepotOrWorkshop","Faisceau impair","43.501935","5.1775792","France"
"FR0000005507","DepotOrWorkshop","Faisceau Pair Mervans","46.8001281","5.1791154","France"
"FR0000003679","Station","Mervans","46.7989012","5.1793613","France"
"FR9900001283","FreightTerminal","Berre","43.5002543","5.1800906","France"
"FR0000009566","DepotOrWorkshop","Faisceau reception SHELL","43.499761","5.1808321","France"
"FR0000011494","Junction","Accès à Pagny Technoport","47.0335397","5.1857999","France"
"FR9900001905","FreightTerminal","Blagny","49.619856","5.1891945","France"
"FR0000007861","DepotOrWorkshop","Faisceau Garage","45.9012593","5.1925075","France"
"FR0000004990","Station","Meximieux-Pérouges","45.9016883","5.1934175","France"
